title,community,model,area,price,ave,time,link,longitude,latitude
温馨一室，生活很便利，链家房源，有钥匙方便看,潍坊九村,1室1厅,29平,4600,158,2017.07.30上架,http://sh.lianjia.com/zufang/shz4125694.html,121.5333359,31.2270147
上下楼方便，一室小户型，生活很便利，多次带看,上南二村,1室0厅,30平,3300,110,2017.07.23上架,http://sh.lianjia.com/zufang/shz4112433.html,121.501829,31.182348
德州三村，地铁沿线，温馨之家，有爱有家,德州三村,1室0厅,29平,3000,103,2017.07.12上架,http://sh.lianjia.com/zufang/shz4091978.html,121.4957505,31.1748952
有钥匙房源，精致户型，多次带看，好房待租,联洋年华,2室2厅,112平,12500,111,2017.06.22上架,http://sh.lianjia.com/zufang/shz4049070.html,121.561114,31.232919
光线棒，新出好房，看房有钥匙，放心好房,潍坊九村,2室0厅,52平,6100,117,2017.08.14上架,http://sh.lianjia.com/zufang/shz4157570.html,121.5333359,31.2270147
东方知音苑，新鲜挂牌，看房客户多，房型正气,东方知音苑,3室2厅,117平,8500,72,2017.08.10上架,http://sh.lianjia.com/zufang/shz4074379.html,121.579989,31.261946
生活很便利，高区阳光房，看房有钥匙，新鲜上架,崮山小区三街坊,1室1厅,45平,4000,88,2017.08.10上架,http://sh.lianjia.com/zufang/shz4001407.html,121.568311,31.245956
两室户，交通方便，光线充足，有钥匙方便看,崂山五村,2室1厅,47平,5800,123,2017.08.11上架,http://sh.lianjia.com/zufang/shz4150125.html,121.524189,31.243051
链家有钥匙，享受好房，一室小户型，实地看房,云台二小区,1室1厅,49平,4200,85,2017.07.10上架,http://sh.lianjia.com/zufang/shz4088391.html,121.514875,31.182086
上南六村，有爱有家，低区出入方便，高清实拍,上南六村,2室0厅,51平,5300,103,2017.08.06上架,http://sh.lianjia.com/zufang/shz4141904.html,121.507198,31.183998
张江汤臣豪园，有爱有家，光线充足，出行方便,张江汤臣豪园（二期）,3室2厅,123平,13200,107,2017.08.06上架,http://sh.lianjia.com/zufang/shz4141014.html,121.603671,31.208036
出行方便，温馨一室，最近看房多，享受好房,中远行家,1室1厅,77平,6500,84,2017.08.06上架,http://sh.lianjia.com/zufang/shz4140835.html,121.5359157,31.21060033
东陆新村二街坊，2室1厅，受欢迎好房，好房待租,东陆新村二街坊,2室1厅,65平,4600,70,2017.08.06上架,http://sh.lianjia.com/zufang/shz4140785.html,121.6061953,31.27885008
东昌新村，光线充足，小户型，上门实拍,东昌新村,1室1厅,33平,6000,181,2017.08.05上架,http://sh.lianjia.com/zufang/shz4139621.html,121.51825,31.23831918
上南二村，享受好房，实地看房，低区出入方便,上南二村,1室0厅,29平,4600,158,2017.08.05上架,http://sh.lianjia.com/zufang/shz4139551.html,121.501829,31.182348
好房待租，出行方便，小户型，看房客户多,金桥新村四街坊（博兴路986弄）,1室1厅,42平,4000,95,2017.08.05上架,http://sh.lianjia.com/zufang/shz4138297.html,121.597263,31.27067103
看房有钥匙，精致户型，好房好心情，空气清新,牡丹小区（浦东）,2室1厅,73平,7000,95,2017.08.04上架,http://sh.lianjia.com/zufang/shz4137393.html,121.5520389,31.21342712
东方城市花园，2室2厅1卫，好楼层，多次带看,东方城市花园（二期）,2室2厅,117平,10000,85,2017.08.03上架,http://sh.lianjia.com/zufang/shz4135060.html,121.528449,31.20458
2室1厅1卫，看房客户多，放心好房，钥匙在链家,博山小区,2室1厅,63平,4500,71,2017.08.03上架,http://sh.lianjia.com/zufang/shz4133761.html,121.561216,31.25253
近地铁，上下楼方便，精致户型，最近看房多,万邦都市花园,2室1厅,82平,6500,79,2017.08.02上架,http://sh.lianjia.com/zufang/shz4132503.html,121.559261,31.207145
有爱有家，出行方便，看房客户多，上门实勘,临沂八村,2室2厅,57平,5300,92,2017.08.01上架,http://sh.lianjia.com/zufang/shz4130225.html,121.521992,31.203131
享受好房，看房有钥匙，改善住房，高清实拍,世茂滨江花园,3室2厅,237平,26000,109,2017.07.31上架,http://sh.lianjia.com/zufang/shz4129343.html,121.520399,31.227414
蓝高小区，交通方便，最近看房多，好房待租,蓝高小区,2室0厅,39平,4500,115,2017.07.31上架,http://sh.lianjia.com/zufang/shz4129248.html,121.536618,31.217388
近地铁，适合自住，享受好房，受欢迎好房,品华苑,2室1厅,68平,5000,73,2017.07.31上架,http://sh.lianjia.com/zufang/shz4127879.html,121.5271233,31.1457274
最近看房多，钥匙房，1室1厅1卫，放心好房,新领地,1室1厅,48平,5200,108,2017.07.30上架,http://sh.lianjia.com/zufang/shz4127120.html,121.556841,31.209192
金桂小区，生活很便利，多次带看，有钥匙房源,金桂小区,1室1厅,42平,6800,161,2017.07.30上架,http://sh.lianjia.com/zufang/shz4125495.html,121.5564311,31.21352868
附近有地铁，有爱有家，上下楼方便，钥匙房,德州四村,1室0厅,31平,3300,106,2017.07.29上架,http://sh.lianjia.com/zufang/shz4125368.html,121.492301,31.175519
金桥湾清水苑，2室1厅1卫，采光棒，最近看房多,金桥湾清水苑,2室1厅,68平,4700,69,2017.07.29上架,http://sh.lianjia.com/zufang/shz4124626.html,121.5998803,31.26590419
新领地，附近有地铁，一室小户型，钥匙在店,新领地,1室1厅,53平,4500,84,2017.07.28上架,http://sh.lianjia.com/zufang/shz4122870.html,121.556841,31.209192
低区出入方便，高清大图，钥匙在链家，交通便利,梅园三街坊,1室1厅,27平,4500,166,2017.07.28上架,http://sh.lianjia.com/zufang/shz4122861.html,121.5305678,31.23972158
南泉小区，闹中取静，链家房源，链家有钥匙,南泉小区,1室1厅,35平,3300,94,2017.07.27上架,http://sh.lianjia.com/zufang/shz4121105.html,121.5292505,31.21939613
潍坊五村，高清照片，有钥匙房源，交通方便,潍坊五村,1室0厅,36平,4300,119,2017.07.27上架,http://sh.lianjia.com/zufang/shz4120855.html,121.530556,31.226228
嘉屯苑，上门实拍，1室1厅1卫，一链倾城,嘉屯苑,1室1厅,55平,3500,63,2017.07.30上架,http://sh.lianjia.com/zufang/shz4120320.html,121.5858964,31.29023928
万科金色雅筑，放心好房，南北直通，光线充足,万科金色雅筑,3室2厅,89平,7500,84,2017.07.26上架,http://sh.lianjia.com/zufang/shz4117547.html,121.5248736,31.14983971
潍坊四村，高区阳光房，放心好房，多次带看,潍坊四村,1室0厅,33平,4200,127,2017.07.25上架,http://sh.lianjia.com/zufang/shz4116757.html,121.530817,31.224111
杨思路502弄，地铁沿线，好房好心情，好楼层,杨思路502弄,2室1厅,54平,4000,74,2017.07.24上架,http://sh.lianjia.com/zufang/shz4115027.html,121.5012605,31.16681792
竹园高层，放心好房，钥匙在店，看房客户多,竹园高层,1室1厅,64平,6200,96,2017.07.24上架,http://sh.lianjia.com/zufang/shz4114980.html,121.537486,31.235864
享受好房，受欢迎好房，钥匙在店，近地铁,梅园新村（浦东）,1室1厅,31平,4500,145,2017.07.23上架,http://sh.lianjia.com/zufang/shz4113038.html,121.529064,31.242789
看房客户多，一室小户型，近地铁，空气清新,久阳滨江公寓,1室1厅,78平,10000,128,2017.07.23上架,http://sh.lianjia.com/zufang/shz4112848.html,121.523797,31.228404
梅花新村，生活很便利，实地看房，好房好心情,梅花新村（花木）,2室1厅,72平,5400,75,2017.07.23上架,http://sh.lianjia.com/zufang/shz4112621.html,121.553987,31.208897
凌兆新村，有钥匙房源，一链倾城，低楼层,凌兆新村,2室1厅,73平,4200,57,2017.07.21上架,http://sh.lianjia.com/zufang/shz4108615.html,121.4997321,31.15107711
地铁沿线，受欢迎好房，简约二室，看房有钥匙,毕加索小镇（一期）（公寓）,2室2厅,93平,4000,43,2017.07.20上架,http://sh.lianjia.com/zufang/shz4105864.html,121.653788,31.221435
万邦都市花园，出行方便，看房有钥匙，一链倾城,万邦都市花园,2室1厅,76平,8100,106,2017.07.19上架,http://sh.lianjia.com/zufang/shz4105470.html,121.559261,31.207145
视野开阔，链家好房，两室户，最近看房多,金杨四街坊,2室1厅,50平,4500,90,2017.07.19上架,http://sh.lianjia.com/zufang/shz4105379.html,121.578972,31.24942342
天池二村，有钥匙方便看，链家房源，1室1厅,天池二村,1室1厅,35平,3200,91,2017.07.19上架,http://sh.lianjia.com/zufang/shz4103944.html,121.549245,31.190442
南北户型，上下楼方便，真实在租，地铁沿线,金地未未来,1室1厅,65平,4500,69,2017.07.19上架,http://sh.lianjia.com/zufang/shz4103801.html,121.5934244,31.31238769
新领地，温馨一室，钥匙房，好楼层,新领地,1室1厅,48平,5000,104,2017.07.18上架,http://sh.lianjia.com/zufang/shz4102624.html,121.556841,31.209192
新领地，钥匙在链家，温馨一室，最近看房多,新领地,1室1厅,46平,4600,100,2017.07.18上架,http://sh.lianjia.com/zufang/shz4102421.html,121.556841,31.209192
香榭丽花园，地铁沿线，看房有钥匙，实地看房,香榭丽花园,2室2厅,114平,13500,118,2017.07.17上架,http://sh.lianjia.com/zufang/shz4101847.html,121.542131,31.23323
有钥匙方便看，高清实拍，一室小户型，地铁沿线,临沂六村,1室1厅,40平,4200,105,2017.07.17上架,http://sh.lianjia.com/zufang/shz4101553.html,121.518163,31.199051
南北户型，近地铁，好房好心情，1室1厅1卫,香楠小区,1室1厅,41平,4000,97,2017.07.17上架,http://sh.lianjia.com/zufang/shz4101061.html,121.6193856,31.22197164
绿洲康城亲水湾，如您所见，改善住房，看房有钥匙,绿洲康城亲水湾（中央区）,3室2厅,139平,8000,57,2017.07.17上架,http://sh.lianjia.com/zufang/shz4100889.html,121.590724,31.158247
桃林一小区，有钥匙房源，受欢迎好房，链家好房,桃林一小区,2室1厅,59平,5000,84,2017.07.16上架,http://sh.lianjia.com/zufang/shz4099648.html,121.549623,31.234018
南杨小区，1室1厅1卫，看房方便，高清实拍,南杨小区（长清路）,1室1厅,41平,4000,97,2017.07.16上架,http://sh.lianjia.com/zufang/shz4099002.html,121.498509,31.165334
梅园五街坊，看房方便，看房客户多，简约二室,梅园五街坊,2室1厅,62平,6200,100,2017.07.16上架,http://sh.lianjia.com/zufang/shz4098860.html,121.5351162,31.23799506
多次带看，附近有地铁，链家房源，光线非常好,黄山始信苑,2室1厅,68平,5200,76,2017.07.16上架,http://sh.lianjia.com/zufang/shz4098518.html,121.577387,31.260691
崮山小区四街坊，近地铁，精致户型，最近看房多,崮山小区四街坊,2室0厅,50平,5000,100,2017.07.15上架,http://sh.lianjia.com/zufang/shz4097842.html,121.570175,31.245246
德州四村，采光好，如您所见，出行方便,德州四村,1室0厅,35平,3500,100,2017.07.15上架,http://sh.lianjia.com/zufang/shz4097622.html,121.492301,31.175519
看房客户多，1室1厅，好房待租，视野开阔,梅园三街坊,1室1厅,31平,4600,148,2017.07.15上架,http://sh.lianjia.com/zufang/shz4097219.html,121.5305678,31.23972158
附近有地铁，链家有钥匙，光线非常好，享受好房,金杨新村五街坊,1室1厅,48平,3700,77,2017.07.15上架,http://sh.lianjia.com/zufang/shz4096587.html,121.583639,31.251299
南北户型，出行方便，2室1厅1卫，链家房源,古桐六村,2室1厅,116平,4600,39,2017.07.14上架,http://sh.lianjia.com/zufang/shz4095821.html,121.617674,31.207133
上下楼方便，2室2厅1卫，链家房源，最近看房多,海尚乐苑,2室2厅,79平,2600,32,2017.07.14上架,http://sh.lianjia.com/zufang/shz4095774.html,121.6094,31.121799
链家有钥匙，实地看房，光线充足，生活很便利,万邦都市花园,2室1厅,75平,8000,106,2017.07.13上架,http://sh.lianjia.com/zufang/shz4093236.html,121.559261,31.207145
最近看房多，高清大图，放心好房，闹中取静,凌兆新村（上浦路69弄）,2室1厅,52平,4300,82,2017.07.13上架,http://sh.lianjia.com/zufang/shz4092496.html,121.4967614,31.15063417
陆家嘴花园，有钥匙，空气清新，人气房源,陆家嘴花园（二期）,3室2厅,148平,16500,111,2017.07.12上架,http://sh.lianjia.com/zufang/shz4091780.html,121.548948,31.236296
看房方便，1室2厅，放心好房，地铁沿线,浦发绿城,1室2厅,51平,3300,64,2017.07.12上架,http://sh.lianjia.com/zufang/shz4091525.html,121.548636,31.156052
精致户型，链家房源，有钥匙方便看，受欢迎好房,地杰国际城（E欧泊时光）,2室2厅,90平,5800,64,2017.07.10上架,http://sh.lianjia.com/zufang/shz4087778.html,121.579176,31.162636
潍坊九村，生活很便利，简约二室，实地看房,潍坊九村,2室1厅,52平,6000,115,2017.07.10上架,http://sh.lianjia.com/zufang/shz4087401.html,121.5333359,31.2270147
宁阳小区，小户型，生活很便利，人气房源,宁阳小区,1室0厅,32平,3500,109,2017.07.09上架,http://sh.lianjia.com/zufang/shz4086516.html,121.5225921,31.21796129
海阳新村，上门实拍，链家有钥匙，采光好,海阳新村,3室1厅,74平,5200,70,2017.07.09上架,http://sh.lianjia.com/zufang/shz4086290.html,121.500592,31.159638
永泰花苑，地铁沿线，多次带看，链家好房,永泰花苑,2室1厅,72平,5000,69,2017.07.09上架,http://sh.lianjia.com/zufang/shz4086042.html,121.524177,31.143716
看房方便，温馨一室，交通便利，上门实拍,凌兆新村（上浦路165弄）,1室1厅,51平,4000,78,2017.07.09上架,http://sh.lianjia.com/zufang/shz4085660.html,121.4987322,31.15116325
有爱有家，1室1厅1卫，地铁沿线，光线棒,潍坊九村,1室1厅,40平,4500,112,2017.07.08上架,http://sh.lianjia.com/zufang/shz4083651.html,121.5333359,31.2270147
受欢迎好房，生活很便利，一室小户型，有爱有家,开发浦东,1室1厅,50平,5600,112,2017.07.08上架,http://sh.lianjia.com/zufang/shz4083298.html,121.524557,31.230854
城市经典，受欢迎好房，出行方便，简约二室,城市经典（四期）,2室2厅,64平,7600,118,2017.07.07上架,http://sh.lianjia.com/zufang/shz4082039.html,121.625689,31.220596
采光好，实地看房，钥匙房，3房出租,浦东世纪花园（公寓）,3室2厅,182平,25000,137,2017.07.07上架,http://sh.lianjia.com/zufang/shz4081918.html,121.562603,31.216895
梅园三街坊，一室小户型，放心好房，光线充足,梅园三街坊,1室1厅,30平,5000,166,2017.07.07上架,http://sh.lianjia.com/zufang/shz4081299.html,121.5305678,31.23972158
牡丹小区，两室户，有爱有家，低楼层,牡丹小区（浦东）,2室1厅,70平,7000,100,2017.07.07上架,http://sh.lianjia.com/zufang/shz4081251.html,121.5520389,31.21342712
出行方便，南北直通，多次带看，1室1厅1卫,嘉屯苑,1室1厅,50平,3500,70,2017.07.07上架,http://sh.lianjia.com/zufang/shz4080841.html,121.5858964,31.29023928
联洋年华，钥匙房，看房客户多，地铁沿线,联洋年华,2室2厅,113平,11000,97,2017.07.07上架,http://sh.lianjia.com/zufang/shz4080448.html,121.561114,31.232919
博山小区，精致户型，高清照片，链家好房,博山小区,2室1厅,63平,4500,71,2017.07.06上架,http://sh.lianjia.com/zufang/shz4078719.html,121.561216,31.25253
崮山小区二街坊，实地看房，享受好房，近地铁,崮山小区二街坊,2室0厅,50平,5200,104,2017.07.06上架,http://sh.lianjia.com/zufang/shz4078668.html,121.567062,31.247871
中芯花园，交通方便，光线棒，3室2厅,中芯花园（公寓）,3室2厅,125平,9000,72,2017.07.05上架,http://sh.lianjia.com/zufang/shz4077419.html,121.625275,31.223134
西邱小区，一链倾城，温馨之家，受欢迎好房,西邱小区,1室1厅,37平,3700,100,2017.07.05上架,http://sh.lianjia.com/zufang/shz4077005.html,121.5217159,31.212967
享受好房，有钥匙方便看，视野很好，实地看房,上海绿城,2室2厅,108平,10800,100,2017.07.05上架,http://sh.lianjia.com/zufang/shz4076590.html,121.539738,31.211494
万邦都市花园，多次带看，生活很便利，上下楼方便,万邦都市花园,1室2厅,53平,6200,116,2017.07.04上架,http://sh.lianjia.com/zufang/shz4074285.html,121.559261,31.207145
中新家园，低区出入方便，实地看房，交通便利,中新家园,2室1厅,85平,6800,80,2017.07.03上架,http://sh.lianjia.com/zufang/shz4073811.html,121.556138,31.238703
南北户型，近地铁，有钥匙房源，多次带看,竹园新村（浦东）,2室1厅,53平,5800,109,2017.07.03上架,http://sh.lianjia.com/zufang/shz4073719.html,121.537868,31.233427
链家房源，实地看房，高区景观好，有钥匙,宁阳小区,1室0厅,28平,4500,160,2017.07.03上架,http://sh.lianjia.com/zufang/shz4072839.html,121.5225921,31.21796129
实地看房，光线充足，有爱有家，钥匙房,上海绿城,3室2厅,139平,12500,89,2017.07.02上架,http://sh.lianjia.com/zufang/shz4071809.html,121.539738,31.211494
梅花新村，看房客户多，钥匙在链家，2室1厅,梅花新村（花木）,2室1厅,68平,6000,88,2017.07.02上架,http://sh.lianjia.com/zufang/shz4071508.html,121.553987,31.208897
交通便利，闹中取静，链家有钥匙，多次带看,绿洲康城亲水湾（中央区）,1室2厅,67平,4500,67,2017.07.02上架,http://sh.lianjia.com/zufang/shz4071020.html,121.590724,31.158247
东方城市花园，精致户型，地铁沿线，人气房源,东方城市花园（二期）,2室2厅,122平,12000,98,2017.07.02上架,http://sh.lianjia.com/zufang/shz4070584.html,121.528449,31.20458
采光好，近地铁，2室1厅1卫，真实在租,南杨小区（长清路）,2室1厅,55平,4600,83,2017.07.02上架,http://sh.lianjia.com/zufang/shz4070575.html,121.498509,31.165334
简约二室，交通方便，受欢迎好房，视野很好,竹园新村（浦东）,2室1厅,54平,5800,107,2017.07.01上架,http://sh.lianjia.com/zufang/shz4068110.html,121.537868,31.233427
陆家嘴花园，多次带看，2室0厅1卫，空气清新,陆家嘴花园（一期）,2室0厅,87平,9000,103,2017.06.29上架,http://sh.lianjia.com/zufang/shz4065098.html,121.54842438518,31.237858529952
3房出租，空气清新，链家好房，多次带看,东方城市花园（二期）,3室2厅,153平,13500,88,2017.06.29上架,http://sh.lianjia.com/zufang/shz4063150.html,121.528449,31.20458
高清大图，钥匙在店，简约二室，生活很便利,世茂滨江花园,2室2厅,125平,23000,184,2017.07.12上架,http://sh.lianjia.com/zufang/shz4060979.html,121.520399,31.227414
崮山小区二街坊，光线充足，多次带看，一链倾城,崮山小区二街坊,1室1厅,45平,4000,88,2017.06.27上架,http://sh.lianjia.com/zufang/shz4059563.html,121.567062,31.247871
大华锦绣华城，地铁沿线，受欢迎好房，链家房源,大华锦绣华城（二街区）,2室1厅,78平,6200,79,2017.06.26上架,http://sh.lianjia.com/zufang/shz4058046.html,121.533269,31.187226
绿洲康城亲水湾，近地铁，实地看房，2室2厅,绿洲康城亲水湾（中央区）,2室2厅,89平,5500,61,2017.06.25上架,http://sh.lianjia.com/zufang/shz4057390.html,121.590724,31.158247
地杰国际城，有钥匙方便看，一室小户型，最近看房多,地杰国际城（D街坊）,1室1厅,56平,4300,76,2017.06.25上架,http://sh.lianjia.com/zufang/shz4056621.html,121.581511,31.167047
泉东小区，一室小户型，真实在租，低区出入方便,泉东小区,1室0厅,33平,3800,115,2017.06.24上架,http://sh.lianjia.com/zufang/shz4054734.html,121.5279232,31.23366364
低楼层，享受好房，高清照片，出行方便,牡丹路186弄,2室1厅,66平,7000,106,2017.06.24上架,http://sh.lianjia.com/zufang/shz4054150.html,121.552323,31.212528
好房好心情，精致户型，链家有钥匙，实地看房,菊园,2室2厅,100平,13000,130,2017.06.23上架,http://sh.lianjia.com/zufang/shz4052852.html,121.519739,31.233867
泉东，视野开阔，人气房源，高清实拍,泉东（二）小区,2室1厅,44平,6000,136,2017.06.18上架,http://sh.lianjia.com/zufang/shz4051184.html,121.52627,31.231159
交通方便，看房客户多，3室2厅2卫，高清大图,陆家嘴花园（一期）,3室2厅,121平,12200,100,2017.06.08上架,http://sh.lianjia.com/zufang/shz4051182.html,121.54842438518,31.237858529952
附近有地铁，上门实拍，温馨一室，链家房源,塘桥小区,1室0厅,28平,3600,128,2017.06.11上架,http://sh.lianjia.com/zufang/shz4051170.html,121.5280138,31.21645882
文兰小区，视野很好，多次带看，2室1厅,文兰小区,2室1厅,52平,5200,100,2017.06.22上架,http://sh.lianjia.com/zufang/shz4048514.html,121.532806,31.217629
看房方便，交通方便，3房出租，空气清新,申江豪城,3室2厅,126平,8500,67,2017.06.21上架,http://sh.lianjia.com/zufang/shz4046460.html,121.506637,31.16972
中新家园，有钥匙方便看，受欢迎好房，链家房源,中新家园,2室2厅,74平,7900,106,2017.06.20上架,http://sh.lianjia.com/zufang/shz4045782.html,121.556138,31.238703
有钥匙方便看，交通方便，空气清新，2室1厅,绿地御桥苑,2室1厅,67平,4900,73,2017.06.19上架,http://sh.lianjia.com/zufang/shz4044792.html,121.574887,31.160644
梅园四街坊，如您所见，链家有钥匙，两室户,梅园四街坊,2室0厅,49平,5500,112,2017.06.19上架,http://sh.lianjia.com/zufang/shz4044017.html,121.532544,31.238222
世茂滨江花园，出行方便，钥匙在链家，多次带看,世茂滨江花园,1室2厅,88平,15000,170,2017.06.18上架,http://sh.lianjia.com/zufang/shz4043063.html,121.520399,31.227414
光线充足，一室小户型，地铁沿线，高清大图,金杨七街坊,1室1厅,49平,3100,63,2017.06.18上架,http://sh.lianjia.com/zufang/shz4042438.html,121.586328,31.254526
如您所见，出行方便，2室2厅，空气清新,海苑大厦,2室2厅,90平,6500,72,2017.06.18上架,http://sh.lianjia.com/zufang/shz4042236.html,121.551553,31.241955
张江汤臣豪园，适合自住，好房好心情，实地看房,张江汤臣豪园（三期）,2室2厅,89平,9000,101,2017.06.18上架,http://sh.lianjia.com/zufang/shz4042177.html,121.604429,31.205076
培花久远公寓，两室户，看房有钥匙，光线充足,培花久远公寓,2室1厅,65平,5000,76,2017.06.18上架,http://sh.lianjia.com/zufang/shz4042110.html,121.5667793,31.20231336
万邦都市花园，改善住房，享受好房，附近有地铁,万邦都市花园,3室2厅,110平,9500,86,2017.06.18上架,http://sh.lianjia.com/zufang/shz4041306.html,121.559261,31.207145
高清大图，生活很便利，视野很好，好房好心情,华沙一村,2室1厅,75平,3800,50,2017.06.17上架,http://sh.lianjia.com/zufang/shz4040933.html,121.7004649,31.19752736
香梅花园，好房好心情，1室2厅1卫，链家有钥匙,香梅花园,1室2厅,63平,9500,150,2017.06.17上架,http://sh.lianjia.com/zufang/shz4040434.html,121.544671,31.217388
南杨小区，2室1厅，一链倾城，有钥匙房源,南杨小区（长清路）,2室1厅,64平,4500,70,2017.06.17上架,http://sh.lianjia.com/zufang/shz4040067.html,121.498509,31.165334
上门实拍，有爱有家，改善住房，有钥匙房源,江临天下,3室2厅,135平,15500,114,2017.06.17上架,http://sh.lianjia.com/zufang/shz4039968.html,121.518117,31.232224
光线充足，附近有地铁，一室小户型，好房待租,中远行家,1室1厅,50平,5000,100,2017.06.17上架,http://sh.lianjia.com/zufang/shz4039669.html,121.5359157,31.21060033
两室户，交通方便，一链倾城，采光棒,新领地,2室2厅,105平,7500,71,2017.06.17上架,http://sh.lianjia.com/zufang/shz4039061.html,121.556841,31.209192
竹园高层，受欢迎好房，一链倾城，看房有钥匙,竹园高层,2室1厅,62平,7000,112,2017.06.17上架,http://sh.lianjia.com/zufang/shz4038645.html,121.537486,31.235864
低楼层，出行方便，小户型，最近看房多,金杨二街坊,1室1厅,44平,4200,95,2017.06.17上架,http://sh.lianjia.com/zufang/shz4038491.html,121.5833587,31.25573131
东三里桥路160弄，出行方便，最近看房多，视野开阔,东三里桥路160弄,2室1厅,47平,4700,100,2017.06.15上架,http://sh.lianjia.com/zufang/shz4035183.html,121.5174005,31.20527914
高区采光好，交通便利，受欢迎好房，放心好房,崮山小区四街坊,2室0厅,50平,4500,90,2017.06.15上架,http://sh.lianjia.com/zufang/shz4034539.html,121.570175,31.245246
出行方便，受欢迎好房，一链倾城，链家有钥匙,浦东世纪花园（公寓）,3室2厅,179平,18500,103,2017.06.14上架,http://sh.lianjia.com/zufang/shz4033377.html,121.562603,31.216895
链家房源，两室户，地铁沿线，实地看房,桃林小区,2室2厅,107平,7800,72,2017.06.14上架,http://sh.lianjia.com/zufang/shz4032958.html,121.552138,31.237232
上门实拍，有钥匙方便看，真实在租，最近看房多,云台二小区,1室1厅,47平,4500,95,2017.06.12上架,http://sh.lianjia.com/zufang/shz4030008.html,121.514875,31.182086
潍坊六村，适合自住，好房待租，交通便利,潍坊六村,2室0厅,45平,5500,122,2017.06.12上架,http://sh.lianjia.com/zufang/shz4029327.html,121.52945,31.228007
实地看房，好房好心情，钥匙在店，改善住房,菊园,3室2厅,155平,14500,93,2017.06.12上架,http://sh.lianjia.com/zufang/shz4029260.html,121.519739,31.233867
汇豪天下，出行方便，舒适三室，多次带看,汇豪天下,3室2厅,145平,18000,124,2017.06.11上架,http://sh.lianjia.com/zufang/shz4027663.html,121.516454,31.232879
光线棒，附近有地铁，适合自住，享受好房,梅园三街坊,2室1厅,61平,7000,114,2017.06.11上架,http://sh.lianjia.com/zufang/shz4026434.html,121.5305678,31.23972158
阳光花城，看房方便，好房待租，交通便利,阳光花城,2室2厅,97平,8500,87,2017.06.11上架,http://sh.lianjia.com/zufang/shz4026335.html,121.629006,31.212499
人气房源，采光好，1室1厅1卫，好房好心情,崮山小区一街坊,1室1厅,45平,4200,93,2017.06.10上架,http://sh.lianjia.com/zufang/shz4025802.html,121.568745,31.245794
高清实拍，有爱有家，实地看房，交通方便,梅园五街坊,2室1厅,52平,6200,119,2017.06.10上架,http://sh.lianjia.com/zufang/shz4025077.html,121.5351162,31.23799506
上海绿城，南北通，钥匙房，受欢迎好房,上海绿城,3室2厅,134平,13000,97,2017.06.10上架,http://sh.lianjia.com/zufang/shz4023765.html,121.539738,31.211494
看房方便，2室2厅，受欢迎好房，交通方便,毕加索小镇（一期）（公寓）,2室2厅,93平,6000,64,2017.06.09上架,http://sh.lianjia.com/zufang/shz4021280.html,121.653788,31.221435
大唐盛世花园，空气清新，人气房源，真实在租,大唐盛世花园,2室2厅,97平,11000,113,2017.06.08上架,http://sh.lianjia.com/zufang/shz4019136.html,121.566444,31.213217
好楼层，交通便利，享受好房，看房有钥匙,南杨小区（长清路）,2室1厅,55平,4500,81,2017.06.06上架,http://sh.lianjia.com/zufang/shz4015881.html,121.498509,31.165334
高区景观房，上门实拍，两室户，人气房源,盛世年华,2室2厅,85平,11000,129,2017.06.06上架,http://sh.lianjia.com/zufang/shz4015524.html,121.545231,31.234402
放心好房，南北通透，链家有钥匙，2室2厅1卫,天安花园,2室2厅,102平,11000,107,2017.06.06上架,http://sh.lianjia.com/zufang/shz4015029.html,121.561415,31.228874
中芯花园，放心好房，有钥匙方便看，实地看房,中芯花园（公寓）,3室2厅,125平,10000,80,2017.06.06上架,http://sh.lianjia.com/zufang/shz4014984.html,121.625275,31.223134
博山小区，钥匙在链家，受欢迎好房，好房待租,博山小区,2室1厅,66平,5200,78,2017.06.05上架,http://sh.lianjia.com/zufang/shz4013081.html,121.561216,31.25253
链家好房，人气房源，小户型，看房有钥匙,盛世年华,1室1厅,85平,11500,135,2017.06.04上架,http://sh.lianjia.com/zufang/shz4010183.html,121.545231,31.234402
香榭丽花园，人气房源，交通便利，精致户型,香榭丽花园,2室2厅,114平,12500,109,2017.06.03上架,http://sh.lianjia.com/zufang/shz4008619.html,121.542131,31.23323
出行方便，看房方便，最近看房多，南北户型,潍坊九村,2室1厅,51平,6200,121,2017.06.02上架,http://sh.lianjia.com/zufang/shz4004289.html,121.5333359,31.2270147
看房方便，受欢迎好房，好楼层，温馨之家,金杨新村九街坊,1室1厅,47平,3600,76,2017.06.02上架,http://sh.lianjia.com/zufang/shz4003957.html,121.587021,31.260023
中芯花园，看房客户多，钥匙在链家，近地铁,中芯花园（公寓）,2室2厅,101平,9000,89,2017.06.01上架,http://sh.lianjia.com/zufang/shz4003320.html,121.625275,31.223134
建华公寓，人气房源，适合自住，地铁沿线,建华公寓,2室1厅,81平,7000,86,2017.05.31上架,http://sh.lianjia.com/zufang/shz4000289.html,121.556762,31.215745
好房待租，实地看房，简约二室，看房有钥匙,日月光水岸花园（公寓）,2室2厅,90平,7700,85,2017.05.31上架,http://sh.lianjia.com/zufang/shz3999464.html,121.630351,31.219919
世茂滨江花园，交通方便，放心好房，有钥匙,世茂滨江花园,2室2厅,170平,21000,123,2017.05.30上架,http://sh.lianjia.com/zufang/shz3997450.html,121.520399,31.227414
实地看房，视野很好，好房好心情，有钥匙房源,桃林一小区,2室1厅,59平,6500,110,2017.05.28上架,http://sh.lianjia.com/zufang/shz3994944.html,121.549623,31.234018
低楼层，多次带看，有钥匙房源，如您所见,陆家嘴国际华城,2室2厅,113平,13000,115,2017.05.28上架,http://sh.lianjia.com/zufang/shz3994068.html,121.541764,31.241526
多次带看，看房有钥匙，2室2厅2卫，地铁沿线,世茂滨江花园,2室2厅,135平,18000,133,2017.05.27上架,http://sh.lianjia.com/zufang/shz3993078.html,121.520399,31.227414
证大家园，钥匙在链家，好房待租，实地看房,证大家园（公寓）,3室2厅,115平,8600,74,2017.05.27上架,http://sh.lianjia.com/zufang/shz3991546.html,121.6028134,31.28632734
看房有钥匙，简约二室，出行方便，好房好心情,菊园,2室2厅,91平,11000,120,2017.05.26上架,http://sh.lianjia.com/zufang/shz3990725.html,121.519739,31.233867
好楼层，有钥匙，看房客户多，真实在租,毕加索小镇（一期）（公寓）,2室2厅,83平,6000,72,2017.05.26上架,http://sh.lianjia.com/zufang/shz3988677.html,121.653788,31.221435
临沂八村，有爱有家，高区采光好，看房客户多,临沂八村,1室1厅,40平,3500,87,2017.05.24上架,http://sh.lianjia.com/zufang/shz3984839.html,121.521992,31.203131
桃林小区，钥匙在链家，人气房源，精致户型,桃林小区,2室2厅,81平,7200,88,2017.05.21上架,http://sh.lianjia.com/zufang/shz3978252.html,121.552138,31.237232
有钥匙房源，出行方便，最近看房多，上门实拍,六荷苑小区,2室1厅,66平,4300,65,2017.05.24上架,http://sh.lianjia.com/zufang/shz3978107.html,121.5962493,31.27461728
陆家嘴花园，链家房源，看房客户多，生活很便利,陆家嘴花园（一期）,3室2厅,130平,13500,103,2017.05.21上架,http://sh.lianjia.com/zufang/shz3977748.html,121.54842438518,31.237858529952
人气房源，简约二室，有钥匙，地铁沿线,世茂滨江花园,2室2厅,162平,20000,123,2017.05.20上架,http://sh.lianjia.com/zufang/shz3976426.html,121.520399,31.227414
园西小区，好房好心情，高清照片，地铁沿线,园西小区,2室1厅,54平,3500,64,2017.05.19上架,http://sh.lianjia.com/zufang/shz3974785.html,121.7045417,31.19623433
河滨小区，有钥匙房源，高区阳光房，高清大图,河滨小区,2室2厅,76平,3000,39,2017.05.19上架,http://sh.lianjia.com/zufang/shz3974227.html,121.70956,31.19910714
桃林一小区，链家房源，实地看房，1室1厅,桃林一小区,1室1厅,38平,5000,131,2017.05.17上架,http://sh.lianjia.com/zufang/shz3970261.html,121.549623,31.234018
看房有钥匙，空气清新，地铁沿线，最近看房多,金杨新村五街坊,1室1厅,48平,3600,75,2017.05.17上架,http://sh.lianjia.com/zufang/shz3969390.html,121.583639,31.251299
世茂滨江花园，链家房源，钥匙房，近地铁,世茂滨江花园,2室2厅,137平,20000,145,2017.05.14上架,http://sh.lianjia.com/zufang/shz3964303.html,121.520399,31.227414
北蔡大街32弄，1室1厅1卫，有钥匙方便看，人气房源,北蔡大街32弄,1室1厅,43平,3300,76,2017.05.14上架,http://sh.lianjia.com/zufang/shz3962461.html,121.5599903,31.19436126
桃林小区，多次带看，2室1厅1卫，好楼层,桃林小区,2室1厅,81平,7400,91,2017.05.08上架,http://sh.lianjia.com/zufang/shz3949867.html,121.552138,31.237232
受欢迎好房，舒适三室，链家房源，附近有地铁,绿洲康城亲水湾（中央区）,3室2厅,137平,7000,51,2017.05.08上架,http://sh.lianjia.com/zufang/shz3948688.html,121.590724,31.158247
梅园四街坊，低楼层，生活很便利，看房客户多,梅园四街坊,2室1厅,28平,4600,164,2017.05.05上架,http://sh.lianjia.com/zufang/shz3942375.html,121.532544,31.238222
链家房源，有钥匙，近地铁，最近看房多,世茂滨江花园,1室2厅,88平,14800,168,2017.05.05上架,http://sh.lianjia.com/zufang/shz3941769.html,121.520399,31.227414
钥匙在链家，视野很好，近地铁，2室2厅1卫,证大家园（公寓）,2室2厅,104平,7500,72,2017.05.04上架,http://sh.lianjia.com/zufang/shz3939290.html,121.6028134,31.28632734
光线充足，上门实拍，钥匙房，简约二室,凌兆新村（凌兆路586弄）,2室1厅,56平,4300,76,2017.05.03上架,http://sh.lianjia.com/zufang/shz3936960.html,121.5085575,31.14993417
最近看房多，1室2厅，上下楼方便，高清照片,中芯花园（公寓）,1室2厅,67平,5000,74,2017.05.01上架,http://sh.lianjia.com/zufang/shz3931585.html,121.625275,31.223134
光鸿苑，好楼层，两室户，有钥匙方便看,光鸿苑,2室2厅,96平,7500,78,2017.04.30上架,http://sh.lianjia.com/zufang/shz3930176.html,121.521795,31.205495
南杨小区，看房客户多，高区阳光房，小户型,南杨小区（长清路）,1室1厅,41平,3600,87,2017.04.29上架,http://sh.lianjia.com/zufang/shz3928011.html,121.498509,31.165334
真实在租，受欢迎好房，有钥匙，附近有地铁,锦绣河山,2室1厅,78平,5200,66,2017.04.28上架,http://sh.lianjia.com/zufang/shz3925474.html,121.5656737,31.25317057
仁恒滨江园，有钥匙房源，最近看房多，出行方便,仁恒滨江园,2室2厅,83平,16500,198,2017.04.27上架,http://sh.lianjia.com/zufang/shz3923359.html,121.514066,31.236233
2室1厅1卫，实地看房，好房待租，采光棒,开发浦东,2室1厅,67平,6500,97,2017.04.26上架,http://sh.lianjia.com/zufang/shz3922826.html,121.524557,31.230854
有钥匙，房型正气，最近看房多，空气清新,陆家嘴中央公寓,3室2厅,147平,18000,122,2017.04.22上架,http://sh.lianjia.com/zufang/shz3914059.html,121.547503,31.220429
看房客户多，钥匙在链家，近地铁，上门实拍,陆家嘴中央公寓,2室2厅,90平,14000,155,2017.04.21上架,http://sh.lianjia.com/zufang/shz3912550.html,121.547503,31.220429
钥匙在店，高清大图，精致户型，视野很好,绿茵苑（浦东）,2室1厅,72平,4300,59,2017.07.16上架,http://sh.lianjia.com/zufang/shz3908492.html,121.5072719,31.15651089
大唐盛世花园，放心好房，有钥匙，地铁沿线,大唐盛世花园,3室2厅,144平,13500,93,2017.04.16上架,http://sh.lianjia.com/zufang/shz3904945.html,121.566444,31.213217
简约二室，光线棒，交通便利，受欢迎好房,泉东（二）小区,2室0厅,38平,5300,139,2017.04.13上架,http://sh.lianjia.com/zufang/shz3897357.html,121.52627,31.231159
3房出租，好房好心情，有钥匙房源，最近看房多,江临天下,3室2厅,159平,15000,94,2017.04.05上架,http://sh.lianjia.com/zufang/shz3882240.html,121.518117,31.232224
南北直通，视野开阔，实地看房，如您所见,梅园六街坊,2室1厅,48平,6200,129,2017.04.01上架,http://sh.lianjia.com/zufang/shz3873455.html,121.5337602,31.24132805
仁恒滨江园，有爱有家，附近有地铁，上门实勘,仁恒滨江园,3室2厅,167平,28000,167,2017.03.30上架,http://sh.lianjia.com/zufang/shz3869748.html,121.514066,31.236233
温馨一室，近地铁，最近看房多，视野很好,东昌新村,1室0厅,31平,4900,158,2017.03.27上架,http://sh.lianjia.com/zufang/shz3864660.html,121.51825,31.23831918
实地看房，好房待租，附近有地铁，链家有钥匙,陆家嘴花园（二期）,3室2厅,141平,13000,92,2017.03.26上架,http://sh.lianjia.com/zufang/shz3863333.html,121.548948,31.236296
世茂滨江花园，两室户，附近有地铁，高清大图,世茂滨江花园,2室2厅,147平,17000,115,2017.03.21上架,http://sh.lianjia.com/zufang/shz3852829.html,121.520399,31.227414
高区阳光房，钥匙在店，最近看房多，交通便利,连波路228弄,2室1厅,61平,4800,78,2017.03.20上架,http://sh.lianjia.com/zufang/shz3850973.html,121.5598016,31.19786976
凌兆新村，2室1厅，受欢迎好房，闹中取静,凌兆新村（上浦路69弄）,2室1厅,55平,4500,81,2017.03.17上架,http://sh.lianjia.com/zufang/shz3843175.html,121.4967614,31.15063417
盛世年华，生活很便利，最近看房多，链家房源,盛世年华,2室2厅,85平,12000,141,2017.03.13上架,http://sh.lianjia.com/zufang/shz3835545.html,121.545231,31.234402
多次带看，南北通，大气四室，有钥匙方便看,浦东世纪花园（公寓）,4室2厅,180平,16500,91,2017.03.12上架,http://sh.lianjia.com/zufang/shz3834293.html,121.562603,31.216895
钥匙在店，光线充足，人气房源，生活很便利,东方龙苑,2室2厅,98平,8500,86,2017.05.10上架,http://sh.lianjia.com/zufang/shz3827412.html,121.538146,31.20674
链家好房，精致户型，看房有钥匙，人气房源,仁恒滨江园,2室2厅,102平,19000,186,2017.03.05上架,http://sh.lianjia.com/zufang/shz3816915.html,121.514066,31.236233
陆家嘴花园，好房好心情，上下楼方便，多次带看,陆家嘴花园（二期）,3室2厅,148平,14000,94,2017.02.23上架,http://sh.lianjia.com/zufang/shz3793071.html,121.548948,31.236296
滨江大楼，两室户，有爱有家，高区景观房,滨江大楼,2室1厅,70平,7000,100,2017.02.14上架,http://sh.lianjia.com/zufang/shz3769285.html,121.5218271,31.22226537
金羽名庭，生活很便利，高清大图，简约二室,金羽名庭,2室2厅,102平,9000,88,2017.02.09上架,http://sh.lianjia.com/zufang/shz3758028.html,121.563539,31.243425
桃林小区，有钥匙方便看，附近有地铁，上门实拍,桃林小区,2室2厅,96平,7400,77,2017.01.22上架,http://sh.lianjia.com/zufang/shz3736779.html,121.552138,31.237232
交通方便，多次带看，2室2厅2卫，空气清新,世茂滨江花园,2室2厅,156平,19000,121,2017.01.16上架,http://sh.lianjia.com/zufang/shz3728695.html,121.520399,31.227414
低楼层，上门实拍，南北户型，一链倾城,东陆新村五街坊,2室2厅,77平,5500,71,2017.01.15上架,http://sh.lianjia.com/zufang/shz3726514.html,121.5991891,31.28462762
世茂滨江花园，享受好房，光线充足，钥匙房,世茂滨江花园,4室2厅,276平,31000,112,2017.01.14上架,http://sh.lianjia.com/zufang/shz3724986.html,121.520399,31.227414
钥匙在链家，1室0厅，最近看房多，交通方便,西镇小区（浦东）,1室0厅,35平,3500,100,2017.01.10上架,http://sh.lianjia.com/zufang/shz3717606.html,121.554008,31.247331
交通方便，有钥匙，人气房源，有爱有家,联洋年华,2室2厅,118平,11500,97,2017.01.05上架,http://sh.lianjia.com/zufang/shz3708680.html,121.561114,31.232919
花木苑，受欢迎好房，2室1厅1卫，好房好心情,花木苑,2室1厅,73平,7600,104,2017.01.01上架,http://sh.lianjia.com/zufang/shz3700150.html,121.549935,31.216424
环球翡翠湾花园，两室户，多次带看，采光棒,环球翡翠湾花园（公寓）,2室2厅,94平,6500,69,2016.12.27上架,http://sh.lianjia.com/zufang/shz3689357.html,121.539053,31.160076
梅园三街坊，享受好房，受欢迎好房，出行方便,梅园三街坊,1室1厅,27平,4400,162,2016.12.16上架,http://sh.lianjia.com/zufang/shz3662680.html,121.5305678,31.23972158
浦东世纪花园，好房待租，改善住房，地铁沿线,浦东世纪花园（公寓）,3室2厅,126平,13500,107,2016.12.15上架,http://sh.lianjia.com/zufang/shz3659659.html,121.562603,31.216895
采光好，出行方便，看房有钥匙，2室2厅2卫,仁恒滨江园,2室2厅,102平,24000,235,2016.11.20上架,http://sh.lianjia.com/zufang/shz3585947.html,121.514066,31.236233
金桥瑞仕花园，近地铁，有爱有家，看房有钥匙,金桥瑞仕花园,2室2厅,116平,13000,112,2016.11.19上架,http://sh.lianjia.com/zufang/shz3584661.html,121.582859,31.261703
上门实勘，看房方便，空气清新，看房客户多,大唐盛世花园,3室2厅,114平,13000,114,2016.11.18上架,http://sh.lianjia.com/zufang/shz3581006.html,121.566444,31.213217
享受好房，南北户型，实地看房，近地铁,陆家嘴花园（二期）,3室2厅,129平,13500,104,2016.11.13上架,http://sh.lianjia.com/zufang/shz3569182.html,121.548948,31.236296
3室1厅1卫，最近看房多，钥匙在链家，低区出入方便,樱花坊,3室1厅,74平,9000,121,2017.08.14上架,http://sh.lianjia.com/zufang/shz4157187.html,121.558072,31.214566
链家房源，在租四房，附近有地铁，刚挂牌,江临天下,4室2厅,210平,20000,95,2017.08.16上架,http://sh.lianjia.com/zufang/shz4160269.html,121.518117,31.232224
丽都成品，放心好房，一室小户型，实地看房,丽都成品,1室1厅,52平,4600,88,2017.08.14上架,http://sh.lianjia.com/zufang/shz4157144.html,121.5964369,31.28151558
有钥匙房源，新上房源，实地看房，地铁沿线,开发浦东,2室1厅,67平,7500,111,2017.08.13上架,http://sh.lianjia.com/zufang/shz4154688.html,121.524557,31.230854
新鲜挂牌，精致户型，近地铁，链家有钥匙,上南五村,2室1厅,54平,5200,96,2017.08.12上架,http://sh.lianjia.com/zufang/shz4152644.html,121.506795,31.185774
链家有钥匙，南北通，链家好房，近地铁,齐二小区,2室1厅,57平,4800,84,2017.08.12上架,http://sh.lianjia.com/zufang/shz4152352.html,121.518685,31.189068
华丽家族花园，附近有地铁，空气清新，实地看房,华丽家族花园,3室2厅,150平,13000,86,2017.08.12上架,http://sh.lianjia.com/zufang/shz4151834.html,121.564362,31.229917
新出好房，实地看房，好房好心情，钥匙在店,富特三村,2室1厅,58平,3700,63,2017.08.11上架,http://sh.lianjia.com/zufang/shz4150712.html,121.595495,31.340002
实地看房，光线非常好，有钥匙，新上房源,德州二村,1室1厅,32平,4500,140,2017.08.11上架,http://sh.lianjia.com/zufang/shz4150609.html,121.498652,31.175108
济阳一村，钥匙在店，地铁沿线，精致户型,济阳一村,2室1厅,56平,4300,76,2017.08.10上架,http://sh.lianjia.com/zufang/shz4148247.html,121.4891253,31.17198095
恒大华城天地苑，新上房源，实地看房，高清大图,恒大华城天地苑,3室2厅,130平,8600,66,2017.08.09上架,http://sh.lianjia.com/zufang/shz4145705.html,121.4920908,31.16548251
放心好房，生活很便利，采光好，刚挂牌,上海绿城,2室2厅,122平,12000,98,2017.08.07上架,http://sh.lianjia.com/zufang/shz4143325.html,121.539738,31.211494
人气房源，看房有钥匙，出行方便，空气清新,顺馨佳园,4室2厅,130平,6500,50,2017.08.02上架,http://sh.lianjia.com/zufang/shz4133074.html,121.683402,31.198141
在租四房，新鲜挂牌，南北直通，出行方便,浦东世纪花园（公寓）,4室2厅,179平,17000,94,2017.07.29上架,http://sh.lianjia.com/zufang/shz4125350.html,121.562603,31.216895
德州二村，实地看房，上门实拍，新鲜好房,德州二村,2室1厅,53平,5000,94,2017.07.27上架,http://sh.lianjia.com/zufang/shz4103919.html,121.498652,31.175108
好房好心情，低区出入方便，高清大图，2室1厅,中芯花园（公寓）,2室1厅,89平,7000,78,2017.08.11上架,http://sh.lianjia.com/zufang/shz4081102.html,121.625275,31.223134
刚挂牌，简约二室，高区景观好，生活很便利,联丰一期,2室1厅,63平,4700,74,2017.08.16上架,http://sh.lianjia.com/zufang/shz4074298.html,121.5067293,31.16369696
实地看房，高清大图，附近有地铁，新鲜上架,华丽家族花园,3室2厅,150平,14500,96,2017.08.16上架,http://sh.lianjia.com/zufang/shz4038588.html,121.564362,31.229917
盛大金磐，舒适三室，新上房源，放心好房,盛大金磐,3室2厅,194平,32000,164,2017.08.16上架,http://sh.lianjia.com/zufang/shz3518050.html,121.512398,31.237614
证大家园，交通方便，放心好房，看房方便,证大家园（公寓）,3室2厅,116平,8600,74,2017.08.07上架,http://sh.lianjia.com/zufang/shz4143112.html,121.6028134,31.28632734
成山小区，低区出入方便，链家好房，地铁沿线,成山小区,2室1厅,75平,5500,73,2017.06.09上架,http://sh.lianjia.com/zufang/shz4021126.html,121.5181205,31.17557114
附近有地铁，钥匙在店，实地看房，精致户型,峨海小区,2室2厅,61平,6100,100,2017.08.05上架,http://sh.lianjia.com/zufang/shz4139570.html,121.53392,31.221726
东昌新村，适合自住，有钥匙，链家房源,东昌新村,2室1厅,49平,6500,132,2017.08.05上架,http://sh.lianjia.com/zufang/shz4139119.html,121.51825,31.23831918
崂山一村，附近有地铁，有钥匙房源，人气房源,崂山一村,1室1厅,38平,4000,105,2017.08.04上架,http://sh.lianjia.com/zufang/shz4136368.html,121.5251518,31.2427583
精致户型，一链倾城，交通方便，实地看房,泉东（二）小区,2室0厅,49平,6000,122,2017.08.04上架,http://sh.lianjia.com/zufang/shz4136010.html,121.52627,31.231159
南北直通，最近看房多，高区景观房，交通便利,大唐盛世花园,2室2厅,102平,11500,112,2017.08.01上架,http://sh.lianjia.com/zufang/shz4131260.html,121.566444,31.213217
大唐盛世花园，一链倾城，3室2厅，人气房源,大唐盛世花园,3室2厅,147平,14000,95,2017.08.01上架,http://sh.lianjia.com/zufang/shz4131161.html,121.566444,31.213217
万科金色雅筑，放心好房，看房有钥匙，看房客户多,万科金色雅筑,3室2厅,93平,7700,82,2017.07.31上架,http://sh.lianjia.com/zufang/shz4128105.html,121.5248736,31.14983971
附近有地铁，一室小户型，受欢迎好房，低楼层,建华公寓,1室1厅,87平,4000,45,2017.07.31上架,http://sh.lianjia.com/zufang/shz4127821.html,121.556762,31.215745
沪东新村，钥匙房，最近看房多，链家房源,沪东新村,2室1厅,36平,3800,105,2017.07.25上架,http://sh.lianjia.com/zufang/shz4116441.html,121.590956,31.276013
阳光二村，钥匙房，2室1厅，人气房源,阳光二村,2室1厅,47平,5000,106,2017.07.25上架,http://sh.lianjia.com/zufang/shz4115781.html,121.557044,31.252797
陆家嘴花园，享受好房，实地看房，南北通透,陆家嘴花园（一期）,2室2厅,84平,8500,101,2017.07.24上架,http://sh.lianjia.com/zufang/shz4114243.html,121.54842438518,31.237858529952
菊园，地铁沿线，舒适三室，房型正气,菊园,3室2厅,126平,14000,111,2017.07.23上架,http://sh.lianjia.com/zufang/shz4113179.html,121.519739,31.233867
大华锦绣华城，链家有钥匙，交通方便，1室1厅1卫,大华锦绣华城（十街区）,1室1厅,56平,5000,89,2017.07.22上架,http://sh.lianjia.com/zufang/shz4109865.html,121.5418664,31.190162
天池二村，看房客户多，附近有地铁，看房方便,天池二村,1室0厅,33平,3500,106,2017.07.20上架,http://sh.lianjia.com/zufang/shz4107379.html,121.549245,31.190442
新花苑，看房方便，视野很好，看房客户多,新花苑,2室2厅,84平,5800,69,2017.07.20上架,http://sh.lianjia.com/zufang/shz4106914.html,121.5598084,31.20087051
金杨七街坊，精致户型，放心好房，高区景观好,金杨七街坊,2室1厅,55平,4000,72,2017.07.20上架,http://sh.lianjia.com/zufang/shz4106193.html,121.586328,31.254526
1室0厅，最近看房多，如您所见，有钥匙房源,宁阳小区,1室0厅,27平,4500,166,2017.07.19上架,http://sh.lianjia.com/zufang/shz4105105.html,121.5225921,31.21796129
东方城市花园，3室2厅1卫，多次带看，好房待租,东方城市花园（二期）,3室2厅,121平,10500,86,2017.07.18上架,http://sh.lianjia.com/zufang/shz4103160.html,121.528449,31.20458
芳华苑，钥匙在店，多次带看，有爱有家,芳华苑,1室1厅,45平,3700,82,2017.07.17上架,http://sh.lianjia.com/zufang/shz4101601.html,121.5635533,31.20211537
朱家滩小区，好房好心情，人气房源，视野开阔,朱家滩小区,1室1厅,32平,4300,134,2017.07.16上架,http://sh.lianjia.com/zufang/shz4100403.html,121.5263242,31.2297083
云莲苑，链家好房，看房方便，最近看房多,云莲苑,2室2厅,78平,5300,67,2017.07.15上架,http://sh.lianjia.com/zufang/shz4098154.html,121.513291,31.183423
如您所见，低楼层，最近看房多，2室1厅1卫,竹园新村（浦东）,2室1厅,55平,6500,118,2017.07.15上架,http://sh.lianjia.com/zufang/shz4097185.html,121.537868,31.233427
适合自住，好房待租，看房有钥匙，低楼层,云台一小区,2室1厅,52平,4500,86,2017.07.15上架,http://sh.lianjia.com/zufang/shz4097138.html,121.513427,31.179871
上钢八九村，好房好心情，看房客户多，2室0厅1卫,上钢八九村,2室0厅,47平,4800,102,2017.07.13上架,http://sh.lianjia.com/zufang/shz4094210.html,121.491612,31.17692545
上南七村，两室户，钥匙房，受欢迎好房,上南七村,2室1厅,50平,5500,110,2017.07.13上架,http://sh.lianjia.com/zufang/shz4093517.html,121.5098692,31.18016662
西镇小区，受欢迎好房，高区景观好，交通方便,西镇小区（浦东）,1室1厅,37平,3300,89,2017.07.12上架,http://sh.lianjia.com/zufang/shz4090939.html,121.554008,31.247331
附近有地铁，高区景观房，好房待租，温馨之家,金杨七街坊,1室1厅,49平,3400,69,2017.07.11上架,http://sh.lianjia.com/zufang/shz4089484.html,121.586328,31.254526
光线棒，人气房源，生活很便利，温馨之家,上钢七村,1室1厅,31平,3500,112,2017.07.10上架,http://sh.lianjia.com/zufang/shz4087209.html,121.493468,31.178909
视野开阔，有钥匙方便看，两室户，受欢迎好房,金杨新村九街坊,2室1厅,56平,4500,80,2017.07.10上架,http://sh.lianjia.com/zufang/shz4086956.html,121.587021,31.260023
北蔡大街31弄，生活很便利，享受好房，钥匙在链家,北蔡大街31弄,1室1厅,44平,3200,72,2017.07.09上架,http://sh.lianjia.com/zufang/shz4086341.html,121.5601995,31.19378244
金恒小区，钥匙在店，受欢迎好房，放心好房,金恒小区,2室1厅,54平,4800,88,2017.07.09上架,http://sh.lianjia.com/zufang/shz4085109.html,121.5435962,31.18979037
梅园三街坊，链家好房，一室小户型，钥匙房,梅园三街坊,1室2厅,36平,4900,136,2017.07.08上架,http://sh.lianjia.com/zufang/shz4082751.html,121.5305678,31.23972158
一链倾城，4室2厅，近地铁，人气房源,联洋年华,4室2厅,164平,14500,88,2017.07.07上架,http://sh.lianjia.com/zufang/shz4081179.html,121.561114,31.232919
享受好房，钥匙在店，实地看房，2室2厅,证大家园（公寓）,2室2厅,107平,7600,71,2017.07.06上架,http://sh.lianjia.com/zufang/shz4079734.html,121.6028134,31.28632734
蓝高小区，出行方便，好房好心情，链家有钥匙,蓝高小区,1室1厅,38平,4500,118,2017.07.05上架,http://sh.lianjia.com/zufang/shz4077020.html,121.536618,31.217388
万邦都市花园，有钥匙方便看，如您所见，多次带看,万邦都市花园,3室2厅,109平,11500,105,2017.07.05上架,http://sh.lianjia.com/zufang/shz4076412.html,121.559261,31.207145
东沟六村，小户型，看房有钥匙，链家好房,东沟六村,1室1厅,42平,2800,66,2017.07.04上架,http://sh.lianjia.com/zufang/shz4074260.html,121.5835952,31.29557497
沪东新村，高区景观房，小户型，钥匙房,沪东新村,1室1厅,50平,3500,70,2017.07.03上架,http://sh.lianjia.com/zufang/shz4073902.html,121.590956,31.276013
低区出入方便，看房方便，适合自住，如您所见,梅园四街坊,2室1厅,48平,5800,120,2017.07.02上架,http://sh.lianjia.com/zufang/shz4070452.html,121.532544,31.238222
绿洲康城亲水湾，附近有地铁，好房好心情，看房方便,绿洲康城亲水湾（中央区）,3室2厅,147平,7100,48,2017.07.01上架,http://sh.lianjia.com/zufang/shz4067439.html,121.590724,31.158247
适合自住，看房有钥匙，附近有地铁，上下楼方便,梅园三街坊,2室0厅,47平,5500,117,2017.06.30上架,http://sh.lianjia.com/zufang/shz4065503.html,121.5305678,31.23972158
万邦都市花园，舒适三室，好房好心情，有钥匙房源,万邦都市花园,3室2厅,126平,12000,95,2017.06.29上架,http://sh.lianjia.com/zufang/shz4064569.html,121.559261,31.207145
看房有钥匙，适合自住，链家房源，人气房源,东方龙苑,2室2厅,107平,8200,76,2017.06.29上架,http://sh.lianjia.com/zufang/shz4063687.html,121.538146,31.20674
钥匙房，享受好房，低楼层，两室户,潍坊五村,2室1厅,51平,5700,111,2017.06.26上架,http://sh.lianjia.com/zufang/shz4058145.html,121.530556,31.226228
附近有地铁，上下楼方便，南北通透，适合自住,上南二村,2室1厅,48平,4500,93,2017.06.26上架,http://sh.lianjia.com/zufang/shz4058072.html,121.501829,31.182348
明丰花园，简约二室，受欢迎好房，低区出入方便,明丰花园,2室2厅,102平,5800,56,2017.07.05上架,http://sh.lianjia.com/zufang/shz4056334.html,121.537152,31.156254
有钥匙房源，一链倾城，生活很便利，视野开阔,上海绿城,3室2厅,125平,12500,100,2017.06.24上架,http://sh.lianjia.com/zufang/shz4054209.html,121.539738,31.211494
万邦都市花园，舒适三室，近地铁，享受好房,万邦都市花园,3室2厅,110平,10000,90,2017.06.24上架,http://sh.lianjia.com/zufang/shz4054135.html,121.559261,31.207145
东方丽景，一链倾城，空气清新，看房客户多,东方丽景,2室2厅,96平,6500,67,2017.06.22上架,http://sh.lianjia.com/zufang/shz4049465.html,121.5936064,31.28852066
证大家园，交通方便，多次带看，放心好房,证大家园（公寓）,2室2厅,86平,6800,79,2017.06.22上架,http://sh.lianjia.com/zufang/shz4048904.html,121.6028134,31.28632734
看房方便，生活很便利，光线充足，3室2厅,大华锦绣华城（十二街区）,3室2厅,142平,10000,70,2017.06.22上架,http://sh.lianjia.com/zufang/shz4048105.html,121.545428,31.187881
改善住房，实地看房，看房有钥匙，放心好房,山水国际,3室2厅,145平,14000,96,2017.06.22上架,http://sh.lianjia.com/zufang/shz4048032.html,121.550164,31.240324
南北直通，有钥匙房源，采光棒，精致户型,八方大厦,2室2厅,113平,9000,79,2017.06.22上架,http://sh.lianjia.com/zufang/shz4047994.html,121.544802,31.24108
上下楼方便，南北通，钥匙在链家，最近看房多,大唐盛世花园,3室2厅,124平,12000,96,2017.06.21上架,http://sh.lianjia.com/zufang/shz4047233.html,121.566444,31.213217
盛世年华，有爱有家，受欢迎好房，好楼层,盛世年华,3室2厅,144平,15000,104,2017.06.21上架,http://sh.lianjia.com/zufang/shz4046754.html,121.545231,31.234402
看房客户多，地铁沿线，链家房源，好楼层,金地湾流域（公寓）,3室2厅,87平,7300,83,2017.06.19上架,http://sh.lianjia.com/zufang/shz4044045.html,121.526828,31.155039
实地看房，地铁沿线，2室2厅1卫，真实在租,上海绿城,2室2厅,106平,10000,94,2017.06.16上架,http://sh.lianjia.com/zufang/shz4038243.html,121.539738,31.211494
简约二室，链家有钥匙，视野很好，实地看房,东园一村,2室0厅,67平,7800,116,2017.06.12上架,http://sh.lianjia.com/zufang/shz4028857.html,121.5187815,31.23814613
高区景观房，受欢迎好房，链家房源，看房方便,潼港八村,2室1厅,74平,3300,44,2017.06.11上架,http://sh.lianjia.com/zufang/shz4027647.html,121.576008,31.356505
最近看房多，钥匙在店，南北户型，出行方便,证大家园（公寓）,2室2厅,88平,6300,71,2017.06.11上架,http://sh.lianjia.com/zufang/shz4026659.html,121.6028134,31.28632734
视野很好，精致户型，多次带看，有钥匙房源,证大家园（公寓）,2室2厅,88平,6800,77,2017.06.11上架,http://sh.lianjia.com/zufang/shz4026438.html,121.6028134,31.28632734
南北户型，两室户，采光好，链家好房,梅园五街坊,2室1厅,47平,6200,131,2017.06.09上架,http://sh.lianjia.com/zufang/shz4021955.html,121.5351162,31.23799506
临沂六村，看房客户多，附近有地铁，低楼层,临沂六村,1室2厅,37平,4500,121,2017.06.08上架,http://sh.lianjia.com/zufang/shz4020589.html,121.518163,31.199051
有钥匙房源，两室户，多次带看，真实在租,凌兆新村（上浦路165弄）,2室1厅,67平,4800,71,2017.06.07上架,http://sh.lianjia.com/zufang/shz4018297.html,121.4987322,31.15116325
钥匙在店，交通便利，光线充足，3室2厅,上海绿城,3室2厅,132平,17000,128,2017.06.07上架,http://sh.lianjia.com/zufang/shz4018190.html,121.539738,31.211494
昌里花园，最近看房多，好房待租，低楼层,昌里花园（一期）,2室2厅,92平,6800,73,2017.06.05上架,http://sh.lianjia.com/zufang/shz4013181.html,121.51274,31.18396
钥匙房，近地铁，链家房源，受欢迎好房,茂兴大厦,2室1厅,73平,6000,82,2017.06.04上架,http://sh.lianjia.com/zufang/shz4010613.html,121.521779,31.216627
城南路361弄，受欢迎好房，看房有钥匙，享受好房,城南路361弄,1室1厅,49平,2450,50,2017.06.02上架,http://sh.lianjia.com/zufang/shz4005527.html,121.71018338753,31.197585583085
锦绣苑，精致户型，交通方便，看房有钥匙,锦绣苑,2室2厅,101平,7500,74,2017.06.02上架,http://sh.lianjia.com/zufang/shz4004501.html,121.54843,31.211396
简约二室，钥匙房，好楼层，看房客户多,大华锦绣华城（十一街区）,2室2厅,108平,8000,74,2017.06.01上架,http://sh.lianjia.com/zufang/shz4001969.html,121.542584,31.187407
东方龙苑，房型正气，钥匙房，最近看房多,东方龙苑,2室2厅,104平,7000,67,2017.05.31上架,http://sh.lianjia.com/zufang/shz4000321.html,121.538146,31.20674
桃林一小区，看房客户多，适合自住，生活很便利,桃林一小区,2室1厅,82平,7200,87,2017.05.31上架,http://sh.lianjia.com/zufang/shz3999058.html,121.549623,31.234018
精致户型，南北通透，好房好心情，生活很便利,大华锦绣华城（十二街区）,2室2厅,90平,7000,77,2017.05.30上架,http://sh.lianjia.com/zufang/shz3997763.html,121.545428,31.187881
上钢二村，上下楼方便，实地看房，放心好房,上钢二村,2室1厅,71平,6200,87,2017.05.26上架,http://sh.lianjia.com/zufang/shz3988977.html,121.5002344,31.18280577
连波路66弄，链家房源，交通便利，多次带看,连波路66弄,2室1厅,67平,5000,74,2017.05.24上架,http://sh.lianjia.com/zufang/shz3983951.html,121.5587223,31.20086294
人气房源，地铁沿线，1室1厅，高区阳光房,东昌新村,1室1厅,27平,5100,188,2017.05.21上架,http://sh.lianjia.com/zufang/shz3978616.html,121.51825,31.23831918
华高新苑，看房有钥匙，近地铁，享受好房,华高新苑,2室2厅,103平,5300,51,2017.05.19上架,http://sh.lianjia.com/zufang/shz3974177.html,121.61556,31.287204
汤臣豪园，最近看房多，南北户型，有钥匙,汤臣豪园（一期）,5室2厅,226平,18000,79,2017.05.16上架,http://sh.lianjia.com/zufang/shz3967554.html,121.591969,31.215879
涵合园，南北通透，看房有钥匙，好房好心情,涵合园（公寓）,2室2厅,81平,8000,98,2017.05.10上架,http://sh.lianjia.com/zufang/shz3954521.html,121.537297,31.205845
链家有钥匙，近地铁，链家好房，多次带看,香梅花园,3室2厅,173平,15000,86,2017.05.09上架,http://sh.lianjia.com/zufang/shz3951015.html,121.544671,31.217388
御翠园，交通方便，实地看房，享受好房,御翠园,5室3厅,483平,120000,248,2017.05.07上架,http://sh.lianjia.com/zufang/shz3947887.html,121.571472,31.224373
多次带看，低楼层，有钥匙房源，链家好房,潍坊十村,1室1厅,34平,4500,132,2017.04.28上架,http://sh.lianjia.com/zufang/shz3925555.html,121.5305012,31.22878914
实地看房，看房有钥匙，出行方便，3室2厅2卫,香梅花园,3室2厅,162平,17000,104,2017.04.27上架,http://sh.lianjia.com/zufang/shz3924792.html,121.544671,31.217388
万邦都市花园，看房方便，小户型，出行方便,万邦都市花园,1室1厅,54平,6800,125,2017.04.27上架,http://sh.lianjia.com/zufang/shz3923714.html,121.559261,31.207145
交通便利，5室2厅，看房方便，受欢迎好房,御翠园,5室2厅,449平,70000,155,2017.04.23上架,http://sh.lianjia.com/zufang/shz3916272.html,121.571472,31.224373
上海绿城，2室2厅1卫，生活很便利，真实在租,上海绿城,2室2厅,123平,11500,93,2017.04.20上架,http://sh.lianjia.com/zufang/shz3911258.html,121.539738,31.211494
东晶国际公寓，1室2厅1卫，多次带看，生活很便利,东晶国际公寓,1室2厅,68平,8000,117,2017.04.20上架,http://sh.lianjia.com/zufang/shz3910902.html,121.537927,31.246883
好房待租，好楼层，看房有钥匙，近地铁,梅园三街坊,1室0厅,32平,4000,125,2017.04.19上架,http://sh.lianjia.com/zufang/shz3909812.html,121.5305678,31.23972158
梅园三街坊，交通便利，链家有钥匙，链家好房,梅园三街坊,1室1厅,38平,4200,110,2017.04.19上架,http://sh.lianjia.com/zufang/shz3908686.html,121.5305678,31.23972158
陆家嘴中央公寓，南北户型，受欢迎好房，钥匙在店,陆家嘴中央公寓,3室2厅,154平,22000,142,2017.04.10上架,http://sh.lianjia.com/zufang/shz3892434.html,121.547503,31.220429
两室户，看房有钥匙，人气房源，闹中取静,桃林小区,2室1厅,96平,9000,93,2017.04.09上架,http://sh.lianjia.com/zufang/shz3890734.html,121.552138,31.237232
东方汇景苑，南北通，生活很便利，看房客户多,东方汇景苑,3室2厅,145平,11500,79,2017.04.06上架,http://sh.lianjia.com/zufang/shz3883032.html,121.531484,31.209985
大唐盛世花园，实地看房，看房有钥匙，一链倾城,大唐盛世花园,2室2厅,95平,12000,126,2017.03.23上架,http://sh.lianjia.com/zufang/shz3855882.html,121.566444,31.213217
陆家嘴中央公寓，受欢迎好房，链家好房，2室2厅2卫,陆家嘴中央公寓,2室2厅,128平,11000,85,2017.03.21上架,http://sh.lianjia.com/zufang/shz3852688.html,121.547503,31.220429
鹤沙航城汇诚佳苑，钥匙房，高区景观房，两室户,鹤沙航城汇诚佳苑,2室1厅,71平,2100,29,2017.03.09上架,http://sh.lianjia.com/zufang/shz3826802.html,121.6090743,31.08329756
看房有钥匙，3室2厅2卫，最近看房多，近地铁,东方汇景苑,3室2厅,146平,12500,85,2017.03.08上架,http://sh.lianjia.com/zufang/shz3825194.html,121.531484,31.209985
光线充足，钥匙在店，交通便利，适合自住,塘东小区,2室1厅,64平,6300,98,2017.02.14上架,http://sh.lianjia.com/zufang/shz3769937.html,121.532922,31.218117
如您所见，2室2厅1卫，附近有地铁，看房有钥匙,锦绣苑,2室2厅,101平,7500,74,2016.12.27上架,http://sh.lianjia.com/zufang/shz3689491.html,121.54843,31.211396
塘桥小区，高区采光好，看房方便，真实在租,塘桥小区,1室0厅,29平,3900,134,2016.12.02上架,http://sh.lianjia.com/zufang/shz3620161.html,121.5280138,31.21645882
浦东世纪花园，链家房源，在租四房，交通方便,浦东世纪花园（公寓）,4室2厅,224平,20000,89,2016.11.25上架,http://sh.lianjia.com/zufang/shz3600196.html,121.562603,31.216895
低区出入方便，钥匙在店，2室1厅1卫，多次带看,新世纪花苑（二期）（浦东）,2室1厅,59平,5600,94,2016.06.01上架,http://sh.lianjia.com/zufang/shz1946578.html,121.489736,31.179875
明珠苑，上下楼方便，2室2厅，看房方便,明珠苑（浦东）,2室2厅,81平,6100,75,2017.07.02上架,http://sh.lianjia.com/zufang/shz4070051.html,121.564327,31.246548
浦东南路3649弄，空气清新，生活很便利，钥匙在店,浦东南路3649弄,1室1厅,29平,3800,131,2017.06.05上架,http://sh.lianjia.com/zufang/shz4012909.html,121.5126297,31.19496958
杨高南路2877弄，享受好房，地铁沿线，南北直通,杨高南路2877弄,2室1厅,57平,4500,78,2017.06.07上架,http://sh.lianjia.com/zufang/shz4012043.html,121.5259915,31.18160393
泉东小区，实地看房，生活很便利，高区阳光房,泉东小区,1室1厅,42平,5500,130,2017.08.12上架,http://sh.lianjia.com/zufang/shz4152549.html,121.5279232,31.23366364
竹园新村，精致户型，有钥匙，如您所见,竹园新村（浦东）,2室1厅,53平,7000,132,2017.08.10上架,http://sh.lianjia.com/zufang/shz4147793.html,121.537868,31.233427
地杰国际城，人气房源，放心好房，交通便利,地杰国际城（D街坊）,1室1厅,56平,3200,57,2017.08.10上架,http://sh.lianjia.com/zufang/shz4147579.html,121.581511,31.167047
齐二小区，人气房源，钥匙在链家，真实在租,齐二小区,2室1厅,82平,6000,73,2017.08.09上架,http://sh.lianjia.com/zufang/shz4147288.html,121.518685,31.189068
出行方便，2室2厅，高清大图，南北户型,毕加索小镇（二期）（公寓）,2室2厅,89平,6500,73,2017.08.09上架,http://sh.lianjia.com/zufang/shz4146889.html,121.654179,31.218884
交通便利，2室1厅，有钥匙，好房待租,杉林新月（环林东路879弄）,2室1厅,73平,5000,68,2017.08.09上架,http://sh.lianjia.com/zufang/shz4146062.html,121.5362147,31.14670919
实地看房，小户型，真实在租，链家有钥匙,微山二村,1室0厅,32平,4200,131,2017.08.08上架,http://sh.lianjia.com/zufang/shz4145436.html,121.5219318,31.21429556
张江汤臣豪园，实地看房，闹中取静，附近有地铁,张江汤臣豪园（三期）,3室1厅,88平,8500,96,2017.08.08上架,http://sh.lianjia.com/zufang/shz4145196.html,121.604429,31.205076
富特三村，光线非常好，出行方便，1室1厅,富特三村,1室1厅,45平,3000,66,2017.08.08上架,http://sh.lianjia.com/zufang/shz4144993.html,121.595495,31.340002
御桥花园，高清实拍，人气房源，附近有地铁,御桥花园,3室2厅,80平,5000,62,2017.08.08上架,http://sh.lianjia.com/zufang/shz4144687.html,121.578581,31.162249
金杨新村三街坊，人气房源，好房待租，高区阳光房,金杨新村三街坊,1室1厅,42平,3300,78,2017.08.08上架,http://sh.lianjia.com/zufang/shz4144592.html,121.5845,31.256621
新领地，实地看房，空气清新，有爱有家,新领地,1室1厅,46平,5200,113,2017.08.07上架,http://sh.lianjia.com/zufang/shz4144074.html,121.556841,31.209192
东园一村，上门实拍，两室户，享受好房,东园一村,2室1厅,67平,8000,119,2017.08.07上架,http://sh.lianjia.com/zufang/shz4143679.html,121.5187815,31.23814613
金地湾流域，人气房源，看房有钥匙，空气清新,金地湾流域（公寓）,2室2厅,89平,6500,73,2017.08.07上架,http://sh.lianjia.com/zufang/shz4143507.html,121.526828,31.155039
钥匙在店，有爱有家，3房出租，光线充足,金地湾流域（公寓）,3室2厅,89平,7000,78,2017.08.07上架,http://sh.lianjia.com/zufang/shz4143477.html,121.526828,31.155039
竹南小区，一室小户型，交通便利，链家好房,竹南小区,1室1厅,41平,6300,153,2017.08.07上架,http://sh.lianjia.com/zufang/shz4143203.html,121.534993,31.231534
高区采光好，交通便利，人气房源，真实在租,城南路371号,2室1厅,60平,2600,43,2017.08.07上架,http://sh.lianjia.com/zufang/shz4142795.html,121.706686,31.197802
地铁沿线，两室户，低区出入方便，人气房源,绿洲康城亲水湾（中央区）,2室2厅,89平,5800,65,2017.08.06上架,http://sh.lianjia.com/zufang/shz4142448.html,121.590724,31.158247
博学家园，视野开阔，人气房源，高清照片,博学家园,2室2厅,95平,7200,75,2017.08.06上架,http://sh.lianjia.com/zufang/shz4142125.html,121.525348,31.161633
有钥匙房源，空气清新，链家房源，附近有地铁,香楠小区,3室1厅,80平,7000,87,2017.08.06上架,http://sh.lianjia.com/zufang/shz4142114.html,121.6193856,31.22197164
好房好心情，实地看房，舒适三室，光线充足,金杨六街坊,3室1厅,70平,5800,82,2017.08.06上架,http://sh.lianjia.com/zufang/shz4141928.html,121.5798115,31.24982528
地铁沿线，南北直通，人气房源，链家有钥匙,金桥瑞仕花园,4室2厅,179平,22000,122,2017.08.06上架,http://sh.lianjia.com/zufang/shz4141815.html,121.582859,31.261703
上钢七村，高清照片，出行方便，好房好心情,上钢七村,2室0厅,53平,4800,90,2017.08.06上架,http://sh.lianjia.com/zufang/shz4141522.html,121.493468,31.178909
乳山四村，链家好房，钥匙房，交通方便,乳山四村,2室1厅,47平,6500,138,2017.08.06上架,http://sh.lianjia.com/zufang/shz4141445.html,121.5280611,31.24042292
人气房源，钥匙在链家，2室1厅1卫，闹中取静,金杨新村九街坊,2室1厅,56平,5200,92,2017.08.06上架,http://sh.lianjia.com/zufang/shz4140926.html,121.587021,31.260023
梅园五街坊，适合自住，交通便利，上下楼方便,梅园五街坊,2室1厅,51平,7200,141,2017.08.06上架,http://sh.lianjia.com/zufang/shz4140774.html,121.5351162,31.23799506
崮山小区一街坊，钥匙房，享受好房，两室户,崮山小区一街坊,2室1厅,64平,5000,78,2017.08.05上架,http://sh.lianjia.com/zufang/shz4140206.html,121.568745,31.245794
绿波城，好房好心情，好楼层，南北户型,绿波城,2室2厅,91平,4200,46,2017.08.05上架,http://sh.lianjia.com/zufang/shz4139916.html,121.673064,31.21535
崮山小区二街坊，真实在租，2室0厅1卫，人气房源,崮山小区二街坊,2室0厅,50平,5000,100,2017.08.05上架,http://sh.lianjia.com/zufang/shz4139736.html,121.567062,31.247871
海运新村，生活很便利，小户型，链家有钥匙,海运新村,1室1厅,50平,4300,86,2017.08.05上架,http://sh.lianjia.com/zufang/shz4139734.html,121.5204928,31.21275281
海尚乐苑，2室2厅1卫，看房方便，交通方便,海尚乐苑,2室2厅,78平,2800,35,2017.08.05上架,http://sh.lianjia.com/zufang/shz4138561.html,121.6094,31.121799
竹园高层，钥匙房，好楼层，2室1厅,竹园高层,2室1厅,72平,7200,100,2017.08.05上架,http://sh.lianjia.com/zufang/shz4138558.html,121.537486,31.235864
改善住房，钥匙在链家，交通便利，有爱有家,云台二小区,3室1厅,91平,6500,71,2017.08.05上架,http://sh.lianjia.com/zufang/shz4138403.html,121.514875,31.182086
富特三村，有钥匙方便看，附近有地铁，好楼层,富特三村,1室1厅,42平,3000,71,2017.08.04上架,http://sh.lianjia.com/zufang/shz4137433.html,121.595495,31.340002
有钥匙，交通便利，享受好房，简约二室,汇佳苑,2室2厅,86平,5000,58,2017.08.04上架,http://sh.lianjia.com/zufang/shz4137371.html,121.586042,31.287835
人气房源，低区出入方便，1室1厅0卫，附近有地铁,竹南小区,1室1厅,42平,5500,130,2017.08.04上架,http://sh.lianjia.com/zufang/shz4137151.html,121.534993,31.231534
大唐盛世花园，3室2厅2卫，实地看房，有钥匙房源,大唐盛世花园,3室2厅,144平,15000,104,2017.08.04上架,http://sh.lianjia.com/zufang/shz4136154.html,121.566444,31.213217
交通便利，好房好心情，实地看房，两室户,绿洲康城亲水湾（中央区）,2室2厅,103平,6000,58,2017.08.04上架,http://sh.lianjia.com/zufang/shz4136152.html,121.590724,31.158247
视野开阔，高清照片，链家房源，附近有地铁,东源名都,1室1厅,54平,4200,77,2017.08.03上架,http://sh.lianjia.com/zufang/shz4135934.html,121.6215784,31.28907887
凌高小区，空气清新，有钥匙，真实在租,凌高小区,1室1厅,49平,3800,77,2017.08.03上架,http://sh.lianjia.com/zufang/shz4135099.html,121.556823,31.252936
金地未未来，链家有钥匙，好房好心情，附近有地铁,金地未未来,1室1厅,54平,4800,88,2017.08.03上架,http://sh.lianjia.com/zufang/shz4134587.html,121.5934244,31.31238769
地杰国际城，放心好房，出行方便，3房出租,地杰国际城（F欧香四季）,3室2厅,122平,8500,69,2017.08.03上架,http://sh.lianjia.com/zufang/shz4133945.html,121.57983,31.163779
绿缘公寓，2室2厅，光线充足，高清照片,绿缘公寓,2室2厅,117平,11000,94,2017.08.02上架,http://sh.lianjia.com/zufang/shz4133337.html,121.554649,31.21617
金杨四街坊，出行方便，1室1厅，实地看房,金杨四街坊,1室1厅,42平,4200,100,2017.08.02上架,http://sh.lianjia.com/zufang/shz4133316.html,121.578972,31.24942342
崮山小区二街坊，生活很便利，一室小户型，采光好,崮山小区二街坊,1室1厅,55平,4200,76,2017.08.02上架,http://sh.lianjia.com/zufang/shz4133299.html,121.567062,31.247871
钥匙房，实地看房，小户型，生活很便利,高科西路2763弄,1室1厅,44平,4000,90,2017.08.02上架,http://sh.lianjia.com/zufang/shz4133146.html,121.5611992,31.19518835
中冶尚城，人气房源，有爱有家，附近有地铁,中冶尚城,2室2厅,90平,5000,55,2017.08.02上架,http://sh.lianjia.com/zufang/shz4132547.html,121.592796,31.320603
1室1厅，人气房源，低楼层，放心好房,浦电路153号,1室1厅,33平,4200,127,2017.08.02上架,http://sh.lianjia.com/zufang/shz4132446.html,121.52801653507,31.224476347983
香樟苑，好房待租，实地看房，适合自住,香樟苑（浦东）,2室1厅,62平,4500,72,2017.08.02上架,http://sh.lianjia.com/zufang/shz4131648.html,121.5130351,31.16430083
好房好心情，实地看房，近地铁，高区景观好,东陆新村九街坊,2室1厅,68平,4800,70,2017.08.02上架,http://sh.lianjia.com/zufang/shz4131607.html,121.6074025,31.28179857
永泰花苑，链家房源，高区阳光房，附近有地铁,永泰花苑,2室1厅,72平,4500,62,2017.08.02上架,http://sh.lianjia.com/zufang/shz4131464.html,121.524177,31.143716
阳光花城，实地看房，闹中取静，钥匙在店,阳光花城,2室2厅,115平,9000,78,2017.08.01上架,http://sh.lianjia.com/zufang/shz4131002.html,121.629006,31.212499
春江花悦园，交通便利，适合自住，看房有钥匙,春江花悦园,2室2厅,83平,5300,63,2017.08.01上架,http://sh.lianjia.com/zufang/shz4130883.html,121.614368,31.291097
中大雅苑，实地看房，改善住房，好房待租,中大雅苑,3室1厅,102平,6800,66,2017.08.01上架,http://sh.lianjia.com/zufang/shz4130631.html,121.594517,31.273927
芳华苑，一链倾城，附近有地铁，低区出入方便,芳华苑,1室1厅,29平,4000,137,2017.07.31上架,http://sh.lianjia.com/zufang/shz4129106.html,121.5635533,31.20211537
实地看房，近地铁，上门实勘，光线充足,环球翡翠湾花园（公寓）,3室2厅,135平,9000,66,2017.07.31上架,http://sh.lianjia.com/zufang/shz4128839.html,121.539053,31.160076
改善住房，看房有钥匙，上门实拍，实地看房,世茂滨江花园,3室2厅,227平,31000,136,2017.07.31上架,http://sh.lianjia.com/zufang/shz4128484.html,121.520399,31.227414
桃林公寓，链家有钥匙，人气房源，交通方便,桃林公寓,2室2厅,98平,8500,86,2017.07.31上架,http://sh.lianjia.com/zufang/shz4128071.html,121.547171,31.241688
毕加索小镇，上门实拍，生活很便利，实地看房,毕加索小镇（二期）（公寓）,2室2厅,90平,6000,66,2017.07.31上架,http://sh.lianjia.com/zufang/shz4127918.html,121.654179,31.218884
海桐小区，上门实勘，高区景观好，1室1厅,海桐小区,1室1厅,51平,6300,123,2017.07.30上架,http://sh.lianjia.com/zufang/shz4127248.html,121.5593516,31.21122911
链家房源，房型正气，上门实拍，实地看房,翔川家园,3室2厅,98平,5000,51,2017.07.30上架,http://sh.lianjia.com/zufang/shz4126951.html,121.701524,31.18906666
金桥好人家，地铁沿线，链家有钥匙，南北通,金桥好人家,2室2厅,90平,5500,61,2017.07.30上架,http://sh.lianjia.com/zufang/shz4126602.html,121.6004255,31.27257888
空气清新，一链倾城，舒适三室，看房方便,世茂滨江花园,3室2厅,237平,28000,118,2017.07.30上架,http://sh.lianjia.com/zufang/shz4126429.html,121.520399,31.227414
温馨之家，有钥匙房源，交通便利，享受好房,兴业嘉园,1室1厅,52平,7000,134,2017.07.30上架,http://sh.lianjia.com/zufang/shz4126416.html,121.539289,31.228589
博爱家园，有钥匙房源，舒适三室，高清照片,博爱家园,3室2厅,127平,10000,78,2017.07.30上架,http://sh.lianjia.com/zufang/shz4126316.html,121.516771,31.189258
潍坊路148号，温馨之家，生活很便利，闹中取静,潍坊路148号,1室0厅,33平,3800,115,2017.07.30上架,http://sh.lianjia.com/zufang/shz4126276.html,121.53205063737,31.231339778169
大唐盛世花园，链家房源，地铁沿线，高清实拍,大唐盛世花园,4室2厅,181平,16000,88,2017.07.30上架,http://sh.lianjia.com/zufang/shz4125631.html,121.566444,31.213217
高清照片，链家好房，高区景观房，交通方便,龙阳小区,1室1厅,41平,5300,129,2017.07.30上架,http://sh.lianjia.com/zufang/shz4125540.html,121.5269076,31.2132365
链家好房，视野很好，实地看房，3室2厅2卫,绿洲康城亲水湾（中央区）,3室2厅,129平,7500,58,2017.07.29上架,http://sh.lianjia.com/zufang/shz4124019.html,121.590724,31.158247
人气房源，高区景观好，3室2厅，有钥匙,御桥花园,3室2厅,111平,5500,49,2017.07.29上架,http://sh.lianjia.com/zufang/shz4123272.html,121.578581,31.162249
低楼层，有钥匙房源，精致户型，近地铁,地杰国际城（E欧泊时光）,2室2厅,90平,6000,66,2017.07.28上架,http://sh.lianjia.com/zufang/shz4122411.html,121.579176,31.162636
视野开阔，有爱有家，地铁沿线，人气房源,始信北苑,2室1厅,83平,6500,78,2017.07.28上架,http://sh.lianjia.com/zufang/shz4122050.html,121.574832,31.264348
沪东新村，出行方便，有爱有家，温馨之家,沪东新村,1室1厅,37平,3000,81,2017.07.27上架,http://sh.lianjia.com/zufang/shz4121149.html,121.590956,31.276013
实地看房，钥匙在店，链家房源，采光好,竹园高层,1室1厅,65平,7000,107,2017.07.27上架,http://sh.lianjia.com/zufang/shz4120055.html,121.537486,31.235864
上南路3827弄，光线非常好，两室户，实地看房,上南路3827弄,2室1厅,50平,4200,84,2017.07.27上架,http://sh.lianjia.com/zufang/shz4119818.html,121.5122774,31.15698764
微山新村，1室1厅1卫，实地看房，生活很便利,微山新村,1室1厅,42平,4000,95,2017.07.27上架,http://sh.lianjia.com/zufang/shz4119738.html,121.5228465,31.2158392
寿光路161弄，钥匙房，精致户型，有爱有家,寿光路161弄,2室0厅,49平,3000,61,2017.07.27上架,http://sh.lianjia.com/zufang/shz4119392.html,121.5893439,31.28147688
实地看房，3房出租，有钥匙房源，交通便利,杏花新苑,3室2厅,81平,7500,92,2017.07.26上架,http://sh.lianjia.com/zufang/shz4119026.html,121.554538,31.20772
金桥湾清水苑，真实在租，看房方便，光线充足,金桥湾清水苑,2室1厅,70平,5100,72,2017.07.26上架,http://sh.lianjia.com/zufang/shz4118203.html,121.5998803,31.26590419
博爱家园，放心好房，上门实勘，采光棒,博爱家园,3室2厅,116平,9500,81,2017.07.26上架,http://sh.lianjia.com/zufang/shz4117870.html,121.516771,31.189258
实地看房，看房有钥匙，好房待租，交通便利,毕加索小镇（一期）（公寓）,1室2厅,60平,4800,80,2017.07.26上架,http://sh.lianjia.com/zufang/shz4117840.html,121.653788,31.221435
毕加索小镇，好房待租，人气房源，有钥匙房源,毕加索小镇（一期）（公寓）,2室2厅,89平,5000,56,2017.07.26上架,http://sh.lianjia.com/zufang/shz4117635.html,121.653788,31.221435
东力新村，有钥匙，好房好心情，实地看房,东力新村,1室1厅,45平,3200,71,2017.07.26上架,http://sh.lianjia.com/zufang/shz4117622.html,121.6324014,31.2927489
汇豪天下，链家有钥匙，2室2厅，上门实拍,汇豪天下,2室2厅,107平,17000,158,2017.07.26上架,http://sh.lianjia.com/zufang/shz4117429.html,121.516454,31.232879
崮山小区三街坊，2室0厅，人气房源，上门实勘,崮山小区三街坊,2室0厅,50平,4600,92,2017.07.26上架,http://sh.lianjia.com/zufang/shz4117348.html,121.568311,31.245956
温馨之家，实地看房，交通方便，享受好房,东陆新村四街坊,1室1厅,46平,3300,71,2017.07.26上架,http://sh.lianjia.com/zufang/shz4117332.html,121.600893,31.283245
链家有钥匙，实地看房，享受好房，适合自住,培花七村,2室0厅,45平,4800,106,2017.07.25上架,http://sh.lianjia.com/zufang/shz4116635.html,121.564154,31.19802
交通方便，光线棒，实地看房，链家有钥匙,崮山小区二街坊,1室1厅,47平,4300,91,2017.07.25上架,http://sh.lianjia.com/zufang/shz4116001.html,121.567062,31.247871
3室2厅2卫，链家好房，低楼层，实地看房,欣晟家园,3室2厅,150平,9500,63,2017.07.24上架,http://sh.lianjia.com/zufang/shz4115505.html,121.534118,31.208181
金杨新村四街坊，1室1厅1卫，链家有钥匙，空气清新,金杨新村四街坊,1室1厅,44平,3700,84,2017.07.24上架,http://sh.lianjia.com/zufang/shz4114183.html,121.5789382,31.25278441
临沂七村，高区采光好，地铁沿线，有钥匙房源,临沂七村,1室0厅,34平,3000,88,2017.07.23上架,http://sh.lianjia.com/zufang/shz4113199.html,121.520758,31.20142
上门实勘，链家房源，出行方便，钥匙在链家,金杨二街坊,3室1厅,74平,6200,83,2017.07.23上架,http://sh.lianjia.com/zufang/shz4112798.html,121.5833587,31.25573131
唐人苑，实地看房，南北户型，放心好房,唐人苑,3室2厅,107平,6500,60,2017.07.23上架,http://sh.lianjia.com/zufang/shz4112793.html,121.6557439,31.21425241
实地看房，好房好心情，2室2厅，上下楼方便,东方名筑,2室2厅,89平,7900,88,2017.07.23上架,http://sh.lianjia.com/zufang/shz4112703.html,121.5258563,31.20540028
济阳一村，适合自住，交通便利，实地看房,济阳一村,2室1厅,56平,4000,71,2017.07.23上架,http://sh.lianjia.com/zufang/shz4112304.html,121.4891253,31.17198095
简约二室，交通便利，高清实拍，享受好房,南杨花园,2室2厅,81平,6000,74,2017.07.23上架,http://sh.lianjia.com/zufang/shz4112071.html,121.560358,31.199081
财富海景花园，有钥匙，高清照片，南北直通,财富海景花园,3室2厅,184平,35000,190,2017.07.22上架,http://sh.lianjia.com/zufang/shz4111529.html,121.515428,31.231823
阳光二村，近地铁，高清照片，有钥匙方便看,阳光二村,1室1厅,33平,3500,106,2017.07.23上架,http://sh.lianjia.com/zufang/shz4111528.html,121.557044,31.252797
2室1厅1卫，视野开阔，好房好心情，上门实拍,高南新村,2室1厅,69平,3700,53,2017.08.10上架,http://sh.lianjia.com/zufang/shz4111288.html,121.5912018,31.34776718
牡丹路186弄，附近有地铁，上门实勘，有钥匙,牡丹路186弄,2室1厅,66平,6800,103,2017.07.22上架,http://sh.lianjia.com/zufang/shz4111214.html,121.552323,31.212528
实地看房，如您所见，闹中取静，有钥匙方便看,艾东小区,1室1厅,42平,4000,95,2017.07.22上架,http://sh.lianjia.com/zufang/shz4110249.html,121.5292551,31.18698174
享受好房，实地看房，钥匙房，高区景观房,栖山小区,1室1厅,37平,4200,113,2017.07.21上架,http://sh.lianjia.com/zufang/shz4108990.html,121.549684,31.248785
实地看房，钥匙房，2室2厅，南北直通,毕加索小镇（一期）（公寓）,2室2厅,93平,6000,64,2017.07.21上架,http://sh.lianjia.com/zufang/shz4108608.html,121.653788,31.221435
近地铁，高清实拍，好房待租，实地看房,绿茵苑（浦东）,3室1厅,88平,5800,65,2017.07.21上架,http://sh.lianjia.com/zufang/shz4108579.html,121.5072719,31.15651089
明丰花园，看房方便，链家房源，简约二室,明丰花园,2室1厅,86平,5600,65,2017.07.21上架,http://sh.lianjia.com/zufang/shz4108037.html,121.537152,31.156254
临河小区，放心好房，链家有钥匙，出行方便,临河小区,2室1厅,64平,3500,54,2017.07.21上架,http://sh.lianjia.com/zufang/shz4107729.html,121.694606,31.200014
华盛名门，采光好，人气房源，交通方便,华盛名门,3室2厅,141平,5500,39,2017.07.20上架,http://sh.lianjia.com/zufang/shz4107357.html,121.698058,31.199858
看房方便，2室1厅，地铁沿线，人气房源,羽北小区,2室1厅,61平,6000,98,2017.07.20上架,http://sh.lianjia.com/zufang/shz4107353.html,121.553526,31.241646
中芯花园，交通便利，3房出租，实地看房,中芯花园（公寓）,3室2厅,130平,10000,76,2017.07.20上架,http://sh.lianjia.com/zufang/shz4106085.html,121.625275,31.223134
樱花路89弄，高区景观房，改善住房，高清大图,樱花路89弄,3室2厅,99平,8500,85,2017.07.20上架,http://sh.lianjia.com/zufang/shz4105979.html,121.552452,31.211593
文兰小区，交通便利，2室1厅1卫，如您所见,文兰小区,2室1厅,64平,7200,112,2017.07.19上架,http://sh.lianjia.com/zufang/shz4104242.html,121.532806,31.217629
实地看房，好房待租，低区出入方便，有钥匙,梅园三街坊,2室1厅,48平,6500,135,2017.07.19上架,http://sh.lianjia.com/zufang/shz4104096.html,121.5305678,31.23972158
生活很便利，高清大图，3室2厅，实地看房,盛世年华,3室2厅,138平,15000,108,2017.07.19上架,http://sh.lianjia.com/zufang/shz4104054.html,121.545231,31.234402
看房方便，适合自住，人气房源，附近有地铁,大华锦绣华城（一街区）,2室2厅,78平,6800,87,2017.07.19上架,http://sh.lianjia.com/zufang/shz4104013.html,121.5328262,31.19034135
高清实拍，钥匙在链家，如您所见，交通方便,金桥新村四街坊（长岛路1201弄）,2室1厅,62平,4500,72,2017.07.19上架,http://sh.lianjia.com/zufang/shz4103839.html,121.5967297,31.26934761
链家房源，生活很便利，温馨之家，实地看房,潍坊九村,1室1厅,33平,3800,115,2017.07.18上架,http://sh.lianjia.com/zufang/shz4103705.html,121.5333359,31.2270147
交通方便，3室2厅2卫，南北通，有钥匙房源,大唐盛世花园,3室2厅,138平,17000,123,2017.07.18上架,http://sh.lianjia.com/zufang/shz4103350.html,121.566444,31.213217
东荷小区，链家有钥匙，真实在租，实地看房,东荷小区,1室1厅,52平,3800,73,2017.07.18上架,http://sh.lianjia.com/zufang/shz4102916.html,121.598272,31.2771964
金桥好人家，光线充足，钥匙房，实地看房,金桥好人家,2室1厅,90平,6500,72,2017.07.18上架,http://sh.lianjia.com/zufang/shz4102521.html,121.6004255,31.27257888
成发苑，光线充足，好房待租，适合自住,成发苑,2室2厅,98平,7000,71,2017.07.18上架,http://sh.lianjia.com/zufang/shz4102378.html,121.5026079,31.1698456
浦东南路2054弄，上门实拍，光线非常好，适合自住,浦东南路2054弄,2室1厅,59平,6200,105,2017.07.17上架,http://sh.lianjia.com/zufang/shz4101931.html,121.5237787,31.21689829
南杨小区，一室小户型，钥匙在链家，采光好,南杨小区（长清路）,1室1厅,41平,3800,92,2017.07.17上架,http://sh.lianjia.com/zufang/shz4101848.html,121.498509,31.165334
地杰国际城，高清照片，好房待租，光线充足,地杰国际城（E欧泊时光）,3室2厅,135平,8500,62,2017.07.17上架,http://sh.lianjia.com/zufang/shz4101826.html,121.579176,31.162636
好房好心情，链家有钥匙，光线充足，人气房源,万科海上传奇,3室2厅,106平,9500,89,2017.07.17上架,http://sh.lianjia.com/zufang/shz4101287.html,121.574116,31.164135
地杰国际城，出行方便，看房有钥匙，好楼层,地杰国际城（E欧泊时光）,3室2厅,147平,11000,74,2017.07.17上架,http://sh.lianjia.com/zufang/shz4101096.html,121.579176,31.162636
东晶国际公寓，生活很便利，好楼层，好房好心情,东晶国际公寓,1室1厅,68平,8200,120,2017.07.17上架,http://sh.lianjia.com/zufang/shz4100993.html,121.537927,31.246883
新城海上名园，如您所见，钥匙房，光线充足,新城海上名园,2室2厅,92平,9900,107,2017.07.16上架,http://sh.lianjia.com/zufang/shz4100636.html,121.558271,31.238279
2室0厅，上门实勘，视野开阔，附近有地铁,潍坊三村,2室0厅,46平,4600,100,2017.07.16上架,http://sh.lianjia.com/zufang/shz4100404.html,121.5258052,31.22892091
金杨二街坊，好房好心情，出行方便，人气房源,金杨二街坊,2室2厅,74平,6000,81,2017.07.16上架,http://sh.lianjia.com/zufang/shz4100401.html,121.5833587,31.25573131
港机新村，2室0厅，真实在租，钥匙在链家,港机新村,2室0厅,49平,3800,77,2017.07.16上架,http://sh.lianjia.com/zufang/shz4099928.html,121.5147549,31.19620003
梅园六街坊，有爱有家，精致户型，附近有地铁,梅园六街坊,2室1厅,49平,6700,136,2017.07.16上架,http://sh.lianjia.com/zufang/shz4099733.html,121.5337602,31.24132805
潍坊三村，低楼层，钥匙房，生活很便利,潍坊三村,1室1厅,38平,5260,138,2017.07.16上架,http://sh.lianjia.com/zufang/shz4099642.html,121.5258052,31.22892091
人气房源，链家有钥匙，3室1厅1卫，交通方便,巨东小区,3室1厅,76平,7000,92,2017.07.16上架,http://sh.lianjia.com/zufang/shz4099295.html,121.556479,31.242995
菊园，3房出租，有钥匙房源，实地看房,菊园,3室2厅,125平,15000,120,2017.07.16上架,http://sh.lianjia.com/zufang/shz4098908.html,121.519739,31.233867
链家有钥匙，好楼层，放心好房，实地看房,江临天下,3室2厅,129平,15000,116,2017.08.05上架,http://sh.lianjia.com/zufang/shz4097751.html,121.518117,31.232224
人气房源，看房方便，地铁沿线，视野开阔,日月光水岸花园（公寓）,2室2厅,85平,8300,97,2017.07.15上架,http://sh.lianjia.com/zufang/shz4097614.html,121.630351,31.219919
链家有钥匙，附近有地铁，链家好房，光线充足,金桥瑞仕花园,1室2厅,81平,10000,123,2017.07.15上架,http://sh.lianjia.com/zufang/shz4097307.html,121.582859,31.261703
地铁沿线，简约二室，实地看房，钥匙房,毕加索小镇（二期）（公寓）,2室2厅,91平,5500,60,2017.07.15上架,http://sh.lianjia.com/zufang/shz4097067.html,121.654179,31.218884
人气房源，高区景观好，好房好心情，2室1厅1卫,由由三村,2室1厅,60平,5200,86,2017.07.15上架,http://sh.lianjia.com/zufang/shz4096688.html,121.537613,31.198847
竹园高层，高清照片，舒适三室，光线充足,竹园高层,3室1厅,79平,7500,94,2017.07.15上架,http://sh.lianjia.com/zufang/shz4096606.html,121.537486,31.235864
南北通透，享受好房，低区出入方便，钥匙在店,大华锦绣华城（十街区）,2室1厅,62平,6300,101,2017.07.15上架,http://sh.lianjia.com/zufang/shz4096514.html,121.5418664,31.190162
有钥匙，地铁沿线，人气房源，舒适三室,桃林小区,3室2厅,101平,9500,94,2017.07.15上架,http://sh.lianjia.com/zufang/shz4096369.html,121.552138,31.237232
华高一村，人气房源，低楼层，简约二室,华高一村,2室1厅,66平,4800,72,2017.07.14上架,http://sh.lianjia.com/zufang/shz4096225.html,121.6192976,31.28720279
东昌新村，实地看房，温馨一室，链家房源,东昌新村,1室1厅,39平,4600,117,2017.07.14上架,http://sh.lianjia.com/zufang/shz4095479.html,121.51825,31.23831918
黄浦房产，光线充足，看房有钥匙，上门实拍,黄浦房产,1室1厅,48平,6000,125,2017.07.13上架,http://sh.lianjia.com/zufang/shz4093591.html,121.522828,31.227816
实地看房，附近有地铁，南北直通，有钥匙方便看,中星怡景花园,3室2厅,141平,11000,78,2017.07.13上架,http://sh.lianjia.com/zufang/shz4093531.html,121.560758,31.240721
实地看房，南北通透，交通便利，放心好房,海运新村,1室1厅,50平,4050,81,2017.07.13上架,http://sh.lianjia.com/zufang/shz4093415.html,121.5204928,31.21275281
上南八村，温馨一室，高区景观好，链家有钥匙,上南八村,1室1厅,36平,3700,102,2017.07.13上架,http://sh.lianjia.com/zufang/shz4093242.html,121.511304,31.178892
人气房源，3室1厅，钥匙在店，生活很便利,阳光花城,3室1厅,111平,8600,77,2017.07.12上架,http://sh.lianjia.com/zufang/shz4091615.html,121.629006,31.212499
光线棒，人气房源，交通便利，钥匙在店,东二小区,1室1厅,46平,2900,63,2017.07.11上架,http://sh.lianjia.com/zufang/shz4089136.html,121.6025114,31.27462724
东陆新村二街坊，光线非常好，上门实拍，近地铁,东陆新村二街坊,2室1厅,54平,3800,70,2017.07.11上架,http://sh.lianjia.com/zufang/shz4088690.html,121.6061953,31.27885008
第五大道，有钥匙，好房待租，交通方便,第五大道,2室2厅,104平,10500,100,2017.07.10上架,http://sh.lianjia.com/zufang/shz4088022.html,121.554268,31.239542
博山小区，链家好房，上下楼方便，小户型,博山小区,1室1厅,38平,3200,84,2017.07.10上架,http://sh.lianjia.com/zufang/shz4087523.html,121.561216,31.25253
人气房源，小户型，生活很便利，看房方便,黄山新村,1室1厅,46平,3800,82,2017.07.09上架,http://sh.lianjia.com/zufang/shz4086354.html,121.574889,31.258996
看房有钥匙，简约二室，人气房源，链家房源,陆家嘴中央公寓,2室2厅,97平,13000,134,2017.07.09上架,http://sh.lianjia.com/zufang/shz4086059.html,121.547503,31.220429
3室2厅1卫，交通方便，钥匙房，人气房源,万科海上传奇,3室2厅,108平,8000,74,2017.07.09上架,http://sh.lianjia.com/zufang/shz4085996.html,121.574116,31.164135
菊园，钥匙在链家，出行方便，人气房源,菊园,3室2厅,130平,15500,119,2017.07.09上架,http://sh.lianjia.com/zufang/shz4084767.html,121.519739,31.233867
高清实拍，享受好房，交通便利，实地看房,中芯花园（公寓）,1室2厅,67平,5300,79,2017.07.08上架,http://sh.lianjia.com/zufang/shz4084179.html,121.625275,31.223134
有钥匙，地铁沿线，精致户型，视野开阔,上南三村,2室1厅,60平,4800,80,2017.07.08上架,http://sh.lianjia.com/zufang/shz4083053.html,121.504375,31.179456
一链倾城，精致户型，钥匙房，上门实勘,黄山新村,2室1厅,66平,4500,68,2017.08.07上架,http://sh.lianjia.com/zufang/shz4082538.html,121.574889,31.258996
碧云新天地，高清大图，钥匙在店，实地看房,碧云新天地（一期）,2室2厅,105平,9000,85,2017.07.07上架,http://sh.lianjia.com/zufang/shz4081134.html,121.597181,31.265608
海阳新村，2室1厅1卫，人气房源，附近有地铁,海阳新村,2室1厅,69平,5000,72,2017.07.06上架,http://sh.lianjia.com/zufang/shz4079442.html,121.500592,31.159638
陆家嘴中央公寓，出行方便，南北直通，钥匙在链家,陆家嘴中央公寓,2室2厅,93平,14000,150,2017.07.06上架,http://sh.lianjia.com/zufang/shz4078353.html,121.547503,31.220429
界龙花苑，上下楼方便，一室小户型，实地看房,界龙花苑,1室1厅,58平,2800,48,2017.07.05上架,http://sh.lianjia.com/zufang/shz4077019.html,121.6999222,31.19136103
世茂滨江花园，大气四室，交通方便，好房待租,世茂滨江花园,4室2厅,314平,38000,121,2017.07.04上架,http://sh.lianjia.com/zufang/shz4075597.html,121.520399,31.227414
中星海上景庭，实地看房，如您所见，有钥匙房源,中星海上景庭,3室2厅,134平,14000,104,2017.07.04上架,http://sh.lianjia.com/zufang/shz4074759.html,121.555302,31.245073
高清实拍，在租四房，享受好房，生活很便利,东明广场,4室2厅,159平,12000,75,2017.07.04上架,http://sh.lianjia.com/zufang/shz4074291.html,121.5256911,31.23446272
陆家嘴中央公寓，人气房源，链家房源，地铁沿线,陆家嘴中央公寓,2室2厅,132平,15000,113,2017.07.03上架,http://sh.lianjia.com/zufang/shz4074170.html,121.547503,31.220429
浦发博园，上下楼方便，实地看房，南北通,浦发博园（公寓）,3室2厅,131平,8000,61,2017.07.03上架,http://sh.lianjia.com/zufang/shz4074167.html,121.54146,31.156244
云台二小区，有钥匙方便看，1室1厅，地铁沿线,云台二小区,1室1厅,49平,3600,73,2017.07.03上架,http://sh.lianjia.com/zufang/shz4073347.html,121.514875,31.182086
链家有钥匙，出行方便，南北通，3房出租,陆家嘴花园（二期）,3室2厅,142平,15000,105,2017.07.03上架,http://sh.lianjia.com/zufang/shz4073207.html,121.548948,31.236296
人气房源，看房有钥匙，好房好心情，地铁沿线,广洋华景苑,2室2厅,94平,9500,101,2017.07.03上架,http://sh.lianjia.com/zufang/shz4072648.html,121.566263,31.248693
中邦城市，看房有钥匙，适合自住，好房好心情,中邦城市,2室2厅,105平,5800,55,2017.07.02上架,http://sh.lianjia.com/zufang/shz4071760.html,121.577174,31.141764
大唐盛世花园，高区阳光房，链家好房，简约二室,大唐盛世花园,2室2厅,97平,13000,134,2017.07.02上架,http://sh.lianjia.com/zufang/shz4070989.html,121.566444,31.213217
毕加索小镇，钥匙在链家，实地看房，空气清新,毕加索小镇（一期）（公寓）,2室1厅,93平,5500,59,2017.07.02上架,http://sh.lianjia.com/zufang/shz4070742.html,121.653788,31.221435
有钥匙，人气房源，近地铁，简约二室,世茂滨江花园,2室2厅,147平,22000,149,2017.07.01上架,http://sh.lianjia.com/zufang/shz4069860.html,121.520399,31.227414
崮山小区四街坊，有爱有家，看房有钥匙，采光棒,崮山小区四街坊,2室1厅,50平,4600,92,2017.07.01上架,http://sh.lianjia.com/zufang/shz4069567.html,121.570175,31.245246
上下楼方便，两室户，好房好心情，看房方便,山水国际,2室2厅,107平,11000,102,2017.07.01上架,http://sh.lianjia.com/zufang/shz4069375.html,121.550164,31.240324
两室户，采光好，出行方便，上门实勘,南杨小区（长清路）,2室2厅,84平,5000,59,2017.07.01上架,http://sh.lianjia.com/zufang/shz4068322.html,121.498509,31.165334
天后宫大楼，实地看房，如您所见，2室1厅1卫,天后宫大楼,2室1厅,68平,7500,110,2017.07.01上架,http://sh.lianjia.com/zufang/shz4068056.html,121.5230001,31.23208684
罗山五村，视野开阔，如您所见，出行方便,罗山五村,2室1厅,63平,4600,73,2017.07.01上架,http://sh.lianjia.com/zufang/shz4067524.html,121.565928,31.253799
出行方便，大气四室，南北通透，有钥匙方便看,华丽家族花园,4室2厅,172平,16000,93,2017.07.01上架,http://sh.lianjia.com/zufang/shz4067467.html,121.564362,31.229917
山泉花苑，有钥匙方便看，交通方便，链家房源,山泉花苑,5室2厅,138平,15000,108,2017.07.01上架,http://sh.lianjia.com/zufang/shz4067443.html,121.531812,31.221129
金杨六街坊，温馨一室，上门实勘，链家有钥匙,金杨六街坊,1室1厅,41平,3600,87,2017.06.30上架,http://sh.lianjia.com/zufang/shz4066849.html,121.5798115,31.24982528
世茂滨江花园，改善住房，实地看房，好楼层,世茂滨江花园,3室2厅,237平,29000,122,2017.06.30上架,http://sh.lianjia.com/zufang/shz4066198.html,121.520399,31.227414
莱阳北小区，看房有钥匙，光线非常好，高清大图,莱阳北小区,2室1厅,64平,4300,67,2017.06.30上架,http://sh.lianjia.com/zufang/shz4065659.html,121.5869897,31.27988179
博山小区，实地看房，链家房源，温馨之家,博山小区,1室1厅,39平,3800,97,2017.07.20上架,http://sh.lianjia.com/zufang/shz4065397.html,121.561216,31.25253
高清照片，房型正气，改善住房，实地看房,陆家嘴花园（二期）,3室2厅,148平,16000,108,2017.06.29上架,http://sh.lianjia.com/zufang/shz4063531.html,121.548948,31.236296
爵士大厦，有钥匙房源，人气房源，近地铁,爵士大厦,2室2厅,122平,15000,122,2017.06.29上架,http://sh.lianjia.com/zufang/shz4063021.html,121.536022,31.23052525
环球翡翠湾花园，交通便利，钥匙在店，适合自住,环球翡翠湾花园（公寓）,2室2厅,96平,6600,68,2017.06.28上架,http://sh.lianjia.com/zufang/shz4062299.html,121.539053,31.160076
泉东小区，空气清新，生活很便利，有钥匙方便看,泉东小区,1室1厅,41平,4800,117,2017.06.28上架,http://sh.lianjia.com/zufang/shz4060907.html,121.5279232,31.23366364
链家房源，高区采光好，人气房源，有钥匙,东南新村（浦东）,1室1厅,40平,4500,112,2017.06.27上架,http://sh.lianjia.com/zufang/shz4059637.html,121.522882,31.231277
好楼层，一链倾城，有钥匙，出行方便,陆家嘴花园（二期）,3室2厅,148平,16000,108,2017.06.26上架,http://sh.lianjia.com/zufang/shz4058916.html,121.548948,31.236296
链家好房，生活很便利，看房有钥匙，南北通透,崮山小区三街坊,2室0厅,50平,5000,100,2017.06.26上架,http://sh.lianjia.com/zufang/shz4058295.html,121.568311,31.245956
实地看房，近地铁，2室1厅1卫，链家有钥匙,洪高小区,2室1厅,75平,5500,73,2017.06.26上架,http://sh.lianjia.com/zufang/shz4058121.html,121.50561,31.181746
人气房源，地铁沿线，钥匙在店，光线棒,峨山小区,1室0厅,31平,5200,167,2017.06.26上架,http://sh.lianjia.com/zufang/shz4058085.html,121.530113,31.219653
梅园新村，高清大图，链家房源，实地看房,梅园新村（浦东）,2室0厅,51平,5800,113,2017.06.25上架,http://sh.lianjia.com/zufang/shz4056940.html,121.529064,31.242789
泾东小区，交通便利，好楼层，1室1厅,泾东小区,1室1厅,53平,4000,75,2017.06.25上架,http://sh.lianjia.com/zufang/shz4056829.html,121.56326,31.251705
潍坊五村，好楼层，上门实勘，链家有钥匙,潍坊五村,1室1厅,31平,4200,135,2017.06.25上架,http://sh.lianjia.com/zufang/shz4055891.html,121.530556,31.226228
盛大金磐，链家房源，有钥匙方便看，实地看房,盛大金磐,3室2厅,194平,30000,154,2017.06.25上架,http://sh.lianjia.com/zufang/shz4055529.html,121.512398,31.237614
看房有钥匙，交通便利，适合自住，实地看房,银良公寓,2室1厅,77平,6200,80,2017.06.24上架,http://sh.lianjia.com/zufang/shz4053936.html,121.5558187,31.21048293
潍坊四村，地铁沿线，链家好房，高清大图,潍坊四村,2室1厅,52平,5200,100,2017.06.23上架,http://sh.lianjia.com/zufang/shz4052495.html,121.530817,31.224111
仁恒滨江园，地铁沿线，看房有钥匙，实地看房,仁恒滨江园,3室2厅,170平,22500,132,2017.06.23上架,http://sh.lianjia.com/zufang/shz4052303.html,121.514066,31.236233
香榭丽花园，钥匙在链家，生活很便利，实地看房,香榭丽花园,3室2厅,161平,18000,111,2017.07.18上架,http://sh.lianjia.com/zufang/shz4052022.html,121.542131,31.23323
看房有钥匙，出行方便，低楼层，简约二室,申立苑,2室2厅,80平,8500,106,2017.06.23上架,http://sh.lianjia.com/zufang/shz4051823.html,121.555008,31.236773
世茂滨江花园，钥匙房，实地看房，交通便利,世茂滨江花园,4室2厅,334平,38000,113,2017.05.28上架,http://sh.lianjia.com/zufang/shz4051014.html,121.520399,31.227414
上门实拍，真实在租，实地看房，南北通透,华丽家族花园,3室2厅,178平,18000,101,2017.07.25上架,http://sh.lianjia.com/zufang/shz4050761.html,121.564362,31.229917
明珠苑，上下楼方便，交通便利，钥匙在店,明珠苑（浦东）,2室2厅,73平,6500,89,2017.06.20上架,http://sh.lianjia.com/zufang/shz4050013.html,121.564327,31.246548
一链倾城，视野开阔，2室1厅，近地铁,金杨新村十街坊,2室1厅,55平,4800,87,2017.06.20上架,http://sh.lianjia.com/zufang/shz4049884.html,121.5892,31.257172
一链倾城，生活很便利，实地看房，2室1厅,东明苑,2室1厅,80平,6700,83,2017.06.22上架,http://sh.lianjia.com/zufang/shz4049154.html,121.516672,31.188617
交通方便，看房有钥匙，好房待租，上门实拍,牡丹路186弄,2室1厅,61平,6500,106,2017.06.22上架,http://sh.lianjia.com/zufang/shz4048724.html,121.552323,31.212528
陆家嘴中央公寓，地铁沿线，看房方便，一链倾城,陆家嘴中央公寓,3室2厅,145平,20000,137,2017.06.20上架,http://sh.lianjia.com/zufang/shz4045624.html,121.547503,31.220429
梅园六街坊，房型正气，适合自住，低区出入方便,梅园六街坊,2室1厅,52平,7800,150,2017.06.19上架,http://sh.lianjia.com/zufang/shz4045368.html,121.5337602,31.24132805
生活很便利，低区出入方便，上门实勘，享受好房,巨野小区,1室1厅,39平,3300,84,2017.07.06上架,http://sh.lianjia.com/zufang/shz4045048.html,121.548869,31.24982439
中远行家，一链倾城，钥匙在链家，地铁沿线,中远行家,1室2厅,65平,6800,104,2017.06.19上架,http://sh.lianjia.com/zufang/shz4044525.html,121.5359157,31.21060033
浦电路153号，看房方便，人气房源，温馨一室,浦电路153号,1室0厅,32平,3400,106,2017.06.18上架,http://sh.lianjia.com/zufang/shz4042914.html,121.52801653507,31.224476347983
浦东南路2366号，钥匙房，2室1厅，人气房源,浦东南路2366号,2室1厅,63平,5000,79,2017.06.17上架,http://sh.lianjia.com/zufang/shz4040642.html,121.51791923889,31.205341020279
华高一村，空气清新，真实在租，地铁沿线,华高一村,3室1厅,92平,5600,60,2017.06.17上架,http://sh.lianjia.com/zufang/shz4040282.html,121.6192976,31.28720279
张杨南苑，实地看房，放心好房，高区景观好,张杨南苑,2室1厅,70平,6300,90,2017.06.17上架,http://sh.lianjia.com/zufang/shz4040213.html,121.558826,31.243885
2室1厅，近地铁，人气房源，链家房源,齐河三小区,2室1厅,66平,5100,77,2017.06.17上架,http://sh.lianjia.com/zufang/shz4039863.html,121.521123,31.18942253
陆家嘴花园，生活很便利，精致户型，房型正气,陆家嘴花园（二期）,2室2厅,102平,13500,132,2017.06.17上架,http://sh.lianjia.com/zufang/shz4039312.html,121.548948,31.236296
凌高小区，钥匙房，1室1厅1卫，交通方便,凌高小区,1室1厅,51平,3700,72,2017.06.16上架,http://sh.lianjia.com/zufang/shz4037086.html,121.556823,31.252936
崮山小区一街坊，人气房源，看房有钥匙，出行方便,崮山小区一街坊,2室1厅,61平,5000,81,2017.06.16上架,http://sh.lianjia.com/zufang/shz4036961.html,121.568745,31.245794
实地看房，精致户型，近地铁，上门实勘,培花久远公寓,2室2厅,119平,8000,67,2017.06.25上架,http://sh.lianjia.com/zufang/shz4036683.html,121.5667793,31.20231336
东方汇景苑，放心好房，南北直通，有钥匙,东方汇景苑,4室2厅,156平,14000,89,2017.06.15上架,http://sh.lianjia.com/zufang/shz4035054.html,121.531484,31.209985
杉林新月，链家房源，人气房源，适合自住,杉林新月（环林东路879弄）,2室1厅,76平,5000,65,2017.06.15上架,http://sh.lianjia.com/zufang/shz4034707.html,121.5362147,31.14670919
好房好心情，看房有钥匙，光线非常好，实地看房,梅园二街坊,2室1厅,51平,6500,127,2017.06.14上架,http://sh.lianjia.com/zufang/shz4032469.html,121.5309453,31.24239332
人气房源，改善住房，好房好心情，光线充足,碧云新天地（三期）,3室2厅,120平,12000,100,2017.06.13上架,http://sh.lianjia.com/zufang/shz4030679.html,121.5974049,31.26546282
华丽家族花园，人气房源，钥匙在店，好楼层,华丽家族花园,4室2厅,192平,25000,130,2017.06.11上架,http://sh.lianjia.com/zufang/shz4027673.html,121.564362,31.229917
钥匙在店，房型正气，光线充足，交通便利,家化滨江苑,2室2厅,107平,12500,116,2017.06.11上架,http://sh.lianjia.com/zufang/shz4027588.html,121.520219,31.220365
大唐盛世花园，人气房源，南北通，两室户,大唐盛世花园,2室2厅,110平,13000,118,2017.06.11上架,http://sh.lianjia.com/zufang/shz4026328.html,121.566444,31.213217
看房方便，出行方便，有爱有家，高清照片,潍坊十村,1室1厅,38平,4400,115,2017.07.12上架,http://sh.lianjia.com/zufang/shz4026311.html,121.5305012,31.22878914
人气房源，真实在租，南北户型，两室户,瑞苑公寓,2室2厅,131平,17000,129,2017.06.10上架,http://sh.lianjia.com/zufang/shz4025479.html,121.517648,31.245746
上南花苑，好房待租，链家有钥匙，交通方便,上南花苑（三期）,3室2厅,142平,9500,66,2017.06.09上架,http://sh.lianjia.com/zufang/shz4021776.html,121.51043,31.185708
蓝高小区，实地看房，钥匙在链家，高区景观房,蓝高小区,2室1厅,55平,6750,122,2017.06.08上架,http://sh.lianjia.com/zufang/shz4020929.html,121.536618,31.217388
看房有钥匙，3房出租，南北直通，出行方便,第五大道,3室2厅,139平,12000,86,2017.06.07上架,http://sh.lianjia.com/zufang/shz4018432.html,121.554268,31.239542
上门实拍，1室1厅，附近有地铁，钥匙房,竹园新村（浦东）,1室1厅,42平,5800,138,2017.06.07上架,http://sh.lianjia.com/zufang/shz4017096.html,121.537868,31.233427
汤臣豪园，放心好房，4室2厅，近地铁,汤臣豪园（二期）,4室2厅,268平,23000,85,2017.07.26上架,http://sh.lianjia.com/zufang/shz4015941.html,121.589313,31.215008
财富海景花园，好房好心情，2室2厅2卫，看房方便,财富海景花园,2室2厅,170平,35000,205,2017.06.06上架,http://sh.lianjia.com/zufang/shz4014615.html,121.515428,31.231823
阳光花城，交通便利，南北通透，有爱有家,阳光花城,3室2厅,139平,13000,93,2017.06.06上架,http://sh.lianjia.com/zufang/shz4014384.html,121.629006,31.212499
香梅花园，房型正气，看房有钥匙，3房出租,香梅花园,3室2厅,169平,18000,106,2017.06.05上架,http://sh.lianjia.com/zufang/shz4013229.html,121.544671,31.217388
看房有钥匙，人气房源，附近有地铁，1室2厅,明珠苑（浦东）,1室2厅,61平,5200,85,2017.06.05上架,http://sh.lianjia.com/zufang/shz4012768.html,121.564327,31.246548
云台二小区，生活很便利，链家有钥匙，光线棒,云台二小区,3室1厅,90平,6500,72,2017.06.04上架,http://sh.lianjia.com/zufang/shz4012058.html,121.514875,31.182086
实地看房，适合自住，上门实拍，空气清新,东明广场,2室2厅,145平,12000,82,2017.06.04上架,http://sh.lianjia.com/zufang/shz4011172.html,121.5256911,31.23446272
东方城市花园，放心好房，实地看房，房型正气,东方城市花园（二期）,3室2厅,142平,14000,98,2017.06.04上架,http://sh.lianjia.com/zufang/shz4011055.html,121.528449,31.20458
钥匙在链家，真实在租，1室1厅1卫，近地铁,金杨新村五街坊,1室1厅,48平,3500,72,2017.06.04上架,http://sh.lianjia.com/zufang/shz4010418.html,121.583639,31.251299
看房方便，人气房源，近地铁，真实在租,香樟苑（浦东）,1室1厅,52平,3500,67,2017.06.04上架,http://sh.lianjia.com/zufang/shz4009788.html,121.5130351,31.16430083
绿地御桥苑，地铁沿线，好房待租，适合自住,绿地御桥苑,2室2厅,67平,4800,71,2017.06.04上架,http://sh.lianjia.com/zufang/shz4009424.html,121.574887,31.160644
人气房源，钥匙在店，2室1厅，闹中取静,罗山四村,2室1厅,62平,4700,75,2017.06.01上架,http://sh.lianjia.com/zufang/shz4003312.html,121.565495,31.255299
御桥花园，人气房源，钥匙房，链家房源,御桥花园,2室2厅,92平,5500,59,2017.05.31上架,http://sh.lianjia.com/zufang/shz4000082.html,121.578581,31.162249
南北通，光线非常好，有钥匙房源，交通方便,金藤苑,3室1厅,63平,6400,101,2017.07.30上架,http://sh.lianjia.com/zufang/shz4000064.html,121.5979158,31.27422188
南北通透，上下楼方便，人气房源，交通便利,联洋花园（二期）,3室2厅,145平,15000,103,2017.05.30上架,http://sh.lianjia.com/zufang/shz3997819.html,121.560048,31.234007
碧云新天地，南北通透，实地看房，改善住房,碧云新天地（三期）,3室2厅,129平,12500,96,2017.05.30上架,http://sh.lianjia.com/zufang/shz3997561.html,121.5974049,31.26546282
实地看房，3房出租，享受好房，出行方便,华丽家族花园,3室2厅,136平,13500,99,2017.05.29上架,http://sh.lianjia.com/zufang/shz3996039.html,121.564362,31.229917
空气清新，3室2厅，钥匙在店，地铁沿线,胡姬花园,3室2厅,141平,12000,85,2017.05.28上架,http://sh.lianjia.com/zufang/shz3995180.html,121.593173,31.214283
联洋年华，温馨一室，人气房源，有爱有家,联洋年华,1室2厅,75平,9200,122,2017.05.28上架,http://sh.lianjia.com/zufang/shz3993696.html,121.561114,31.232919
潍坊九村，看房方便，1室1厅，出行方便,潍坊九村,1室1厅,36平,5500,152,2017.05.28上架,http://sh.lianjia.com/zufang/shz3993308.html,121.5333359,31.2270147
东园二村，光线充足，地铁沿线，看房方便,东园二村,1室0厅,32平,5200,162,2017.05.27上架,http://sh.lianjia.com/zufang/shz3992709.html,121.5180057,31.23760155
黄山始信苑，实地看房，房型正气，地铁沿线,黄山始信苑,2室2厅,68平,5600,82,2017.05.27上架,http://sh.lianjia.com/zufang/shz3992090.html,121.577387,31.260691
陆家嘴花园，简约二室，享受好房，上门实拍,陆家嘴花园（二期）,2室2厅,178平,11500,64,2017.06.23上架,http://sh.lianjia.com/zufang/shz3989482.html,121.548948,31.236296
仁恒滨江园，3室2厅，有钥匙，出行方便,仁恒滨江园,3室2厅,217平,37000,170,2017.05.26上架,http://sh.lianjia.com/zufang/shz3988610.html,121.514066,31.236233
海上国际花园，链家好房，上门实拍，上下楼方便,海上国际花园（一期）,5室2厅,187平,13000,69,2017.08.09上架,http://sh.lianjia.com/zufang/shz3987761.html,121.551691,31.187371
浦东世纪花园，光线充足，实地看房，南北通,浦东世纪花园（公寓）,3室2厅,180平,20000,111,2017.05.25上架,http://sh.lianjia.com/zufang/shz3986828.html,121.562603,31.216895
出行方便，视野很好，2室1厅，实地看房,东园一村,2室1厅,67平,8000,119,2017.05.24上架,http://sh.lianjia.com/zufang/shz3984423.html,121.5187815,31.23814613
低区出入方便，南北户型，有钥匙，3房出租,山水国际,3室2厅,145平,14800,102,2017.05.24上架,http://sh.lianjia.com/zufang/shz3983553.html,121.550164,31.240324
改善住房，好房待租，高清大图，房型正气,山水国际,3室2厅,154平,15000,97,2017.05.23上架,http://sh.lianjia.com/zufang/shz3981991.html,121.550164,31.240324
2室2厅1卫，好房待租，实地看房，好楼层,龙昌苑,2室2厅,95平,8000,84,2017.05.20上架,http://sh.lianjia.com/zufang/shz3977239.html,121.552604,31.207022
附近有地铁，看房方便，如您所见，精致户型,世茂滨江花园,2室2厅,137平,23000,167,2017.05.19上架,http://sh.lianjia.com/zufang/shz3974932.html,121.520399,31.227414
光线充足，房型正气，上门实勘，钥匙在链家,联丰新苑,2室1厅,53平,4600,86,2017.05.17上架,http://sh.lianjia.com/zufang/shz3969649.html,121.512451,31.159763
毕加索小镇，人气房源，享受好房，南北直通,毕加索小镇（一期）（公寓）,4室2厅,89平,12000,134,2017.05.17上架,http://sh.lianjia.com/zufang/shz3968558.html,121.653788,31.221435
3室1厅1卫，享受好房，钥匙在链家，人气房源,御桥花园,3室1厅,87平,6000,68,2017.05.15上架,http://sh.lianjia.com/zufang/shz3966380.html,121.578581,31.162249
锦南花苑，有钥匙，上门实勘，2室1厅1卫,锦南花苑,2室1厅,51平,5500,107,2017.05.15上架,http://sh.lianjia.com/zufang/shz3966300.html,121.537602,31.214907
空气清新，高清实拍，近地铁，链家有钥匙,昌五小区,1室1厅,42平,3700,88,2017.05.15上架,http://sh.lianjia.com/zufang/shz3966145.html,121.522948,31.184486
联洋花园，钥匙在店，近地铁，实地看房,联洋花园（一期）,3室2厅,132平,12500,94,2017.05.13上架,http://sh.lianjia.com/zufang/shz3960562.html,121.557991,31.233183
海运新村，高清大图，出行方便，人气房源,海运新村,2室1厅,67平,6200,92,2017.05.12上架,http://sh.lianjia.com/zufang/shz3959639.html,121.5204928,31.21275281
实地看房，2室2厅，采光棒，交通方便,明丰花园,2室2厅,85平,6500,76,2017.05.10上架,http://sh.lianjia.com/zufang/shz3954536.html,121.537152,31.156254
人气房源，光线非常好，放心好房，有钥匙,妙栏路200弄,2室1厅,60平,3200,53,2017.05.07上架,http://sh.lianjia.com/zufang/shz3947055.html,121.6956037,31.19169995
实地看房，高清实拍，链家房源，光线非常好,黄山始信苑,1室1厅,52平,4600,88,2017.07.26上架,http://sh.lianjia.com/zufang/shz3946457.html,121.577387,31.260691
放心好房，空气清新，3室2厅2卫，看房有钥匙,江临天下,3室2厅,129平,15000,116,2017.05.04上架,http://sh.lianjia.com/zufang/shz3938982.html,121.518117,31.232224
上门实拍，享受好房，近地铁，采光好,地杰国际城（E欧泊时光）,3室2厅,84平,7200,85,2017.05.03上架,http://sh.lianjia.com/zufang/shz3935682.html,121.579176,31.162636
中星海上景庭，钥匙房，一链倾城，3室2厅,中星海上景庭,3室2厅,150平,14000,93,2017.05.02上架,http://sh.lianjia.com/zufang/shz3934657.html,121.555302,31.245073
链家房源，生活很便利，钥匙房，人气房源,崮山小区四街坊,3室1厅,80平,6500,81,2017.05.01上架,http://sh.lianjia.com/zufang/shz3933702.html,121.570175,31.245246
陆家嘴中央公寓，看房方便，人气房源，好楼层,陆家嘴中央公寓,3室2厅,150平,21000,140,2017.04.29上架,http://sh.lianjia.com/zufang/shz3928888.html,121.547503,31.220429
有钥匙，真实在租，人气房源，交通便利,汤臣商务中心,3室1厅,193平,26500,137,2017.04.27上架,http://sh.lianjia.com/zufang/shz3923776.html,121.5181956,31.23052648
竹园高层，上门实勘，生活很便利，真实在租,竹园高层,2室1厅,65平,8000,123,2017.04.27上架,http://sh.lianjia.com/zufang/shz3923682.html,121.537486,31.235864
钥匙在店，实地看房，放心好房，南北通透,地杰国际城（E欧泊时光）,3室2厅,147平,10000,68,2017.04.24上架,http://sh.lianjia.com/zufang/shz3918057.html,121.579176,31.162636
绿城上海御园，5室3厅，放心好房，实地看房,绿城上海御园,5室3厅,181平,20000,110,2017.04.23上架,http://sh.lianjia.com/zufang/shz3917750.html,121.601032,31.298523
放心好房，温馨之家，上门实勘，实地看房,汤臣商务中心,1室0厅,68平,8500,125,2017.04.19上架,http://sh.lianjia.com/zufang/shz3909789.html,121.5181956,31.23052648
南北直通，看房方便，实地看房，附近有地铁,香梅花园,3室2厅,196平,19000,96,2017.04.17上架,http://sh.lianjia.com/zufang/shz3905230.html,121.544671,31.217388
上南一村，温馨一室，附近有地铁，享受好房,上南一村,1室0厅,29平,3800,131,2017.04.15上架,http://sh.lianjia.com/zufang/shz3901999.html,121.503931,31.184457
桃林小区，高清照片，链家好房，人气房源,桃林小区,2室2厅,96平,8500,88,2017.06.02上架,http://sh.lianjia.com/zufang/shz3901266.html,121.552138,31.237232
光线棒，实地看房，南北通透，出行方便,梅花苑,2室2厅,98平,6600,67,2017.04.13上架,http://sh.lianjia.com/zufang/shz3897007.html,121.549654,31.215562
大华锦绣华城，交通方便，3房出租，链家有钥匙,大华锦绣华城（十二街区）,3室2厅,134平,9800,73,2017.04.13上架,http://sh.lianjia.com/zufang/shz3896865.html,121.545428,31.187881
近地铁，放心好房，实地看房，2室1厅1卫,昌五小区,2室1厅,56平,4500,80,2017.04.12上架,http://sh.lianjia.com/zufang/shz3896254.html,121.522948,31.184486
附近有地铁，享受好房，人气房源，有钥匙,金谊河畔,2室2厅,107平,7500,70,2017.04.12上架,http://sh.lianjia.com/zufang/shz3895252.html,121.521831,31.147988
桃林小区，高清照片，3室2厅1卫，好房待租,桃林小区,3室2厅,116平,9500,81,2017.04.06上架,http://sh.lianjia.com/zufang/shz3883784.html,121.552138,31.237232
舒适三室，有爱有家，生活很便利，人气房源,欣晟家园,3室2厅,150平,11000,73,2017.04.06上架,http://sh.lianjia.com/zufang/shz3883505.html,121.534118,31.208181
富特五村，钥匙房，好楼层，出行方便,富特五村,2室1厅,58平,4800,82,2017.04.04上架,http://sh.lianjia.com/zufang/shz3879831.html,121.591841,31.34431
山水国际，看房方便，上下楼方便，南北通透,山水国际,3室2厅,145平,15000,103,2017.04.04上架,http://sh.lianjia.com/zufang/shz3879093.html,121.550164,31.240324
毕加索小镇，2室2厅1卫，南北通透，如您所见,毕加索小镇（一期）（公寓）,2室2厅,93平,5500,59,2017.03.31上架,http://sh.lianjia.com/zufang/shz3871511.html,121.653788,31.221435
看房方便，交通方便，真实在租，舒适三室,东方城市公寓,3室2厅,142平,9000,63,2017.03.30上架,http://sh.lianjia.com/zufang/shz3869934.html,121.55365,31.251882
陆家嘴花园，实地看房，链家好房，交通便利,陆家嘴花园（一期）,4室2厅,192平,15500,80,2017.03.30上架,http://sh.lianjia.com/zufang/shz3869343.html,121.54842438518,31.237858529952
实地看房，真实在租，链家有钥匙，精致户型,云台一小区,2室1厅,59平,4800,81,2017.03.29上架,http://sh.lianjia.com/zufang/shz3867367.html,121.513427,31.179871
交通方便，实地看房，改善住房，低楼层,江临天下,3室2厅,165平,16500,100,2017.03.26上架,http://sh.lianjia.com/zufang/shz3863806.html,121.518117,31.232224
交通方便，钥匙在链家，3室2厅，人气房源,联洋花园（二期）,3室2厅,171平,16000,93,2017.03.26上架,http://sh.lianjia.com/zufang/shz3861920.html,121.560048,31.234007
联丰新苑，生活很便利，有钥匙房源，人气房源,联丰新苑,1室1厅,46平,3500,76,2017.03.25上架,http://sh.lianjia.com/zufang/shz3860208.html,121.512451,31.159763
张江汤臣豪园，附近有地铁，实地看房，房型正气,张江汤臣豪园（三期）,2室2厅,111平,9500,85,2017.03.20上架,http://sh.lianjia.com/zufang/shz3851432.html,121.604429,31.205076
放心好房，适合自住，看房方便，实地看房,阳光三村,2室1厅,53平,4800,90,2017.03.18上架,http://sh.lianjia.com/zufang/shz3847241.html,121.5588268,31.25333431
景源佳苑，简约二室，看房方便，人气房源,景源佳苑,2室2厅,99平,5200,52,2017.03.12上架,http://sh.lianjia.com/zufang/shz3833620.html,121.582243,31.294533
国信世纪海景，上门实拍，钥匙房，空气清新,国信世纪海景,3室2厅,196平,35000,178,2017.03.11上架,http://sh.lianjia.com/zufang/shz3830606.html,121.52061,31.218016
人气房源，交通方便，链家有钥匙，高区景观好,环龙公寓,3室2厅,128平,8000,62,2017.03.08上架,http://sh.lianjia.com/zufang/shz3823215.html,121.564929,31.196003
浦发博园，上门实拍，有钥匙，交通方便,浦发博园（别墅）,3室2厅,176平,15000,85,2017.04.08上架,http://sh.lianjia.com/zufang/shz3818180.html,121.5415586,31.15613759
金禾新苑，3室1厅，实地看房，上门实勘,金禾新苑,3室1厅,101平,5700,56,2017.08.05上架,http://sh.lianjia.com/zufang/shz3815114.html,121.5347344,31.15545799
海尚乐苑，生活很便利，人气房源，有钥匙房源,海尚乐苑,1室1厅,59平,2300,38,2017.03.04上架,http://sh.lianjia.com/zufang/shz3814256.html,121.6094,31.121799
潍坊九村，钥匙在链家，实地看房，高区景观好,潍坊九村,2室1厅,48平,5300,110,2017.03.02上架,http://sh.lianjia.com/zufang/shz3810106.html,121.5333359,31.2270147
海宏大厦，光线棒，两室户，好房好心情,海宏大厦,2室2厅,95平,6000,63,2017.02.28上架,http://sh.lianjia.com/zufang/shz3806033.html,121.5040508,31.17100971
好房好心情，看房有钥匙，高清实拍，精致户型,巨杨小区,2室1厅,53平,5500,103,2017.06.19上架,http://sh.lianjia.com/zufang/shz3784632.html,121.551869,31.24425
有钥匙房源，低区出入方便，高清实拍，5室2厅3卫,天安花园,5室2厅,208平,15500,74,2017.02.18上架,http://sh.lianjia.com/zufang/shz3779615.html,121.561415,31.228874
花木苑，人气房源，出行方便，精致户型,花木苑,2室2厅,74平,7000,94,2017.02.13上架,http://sh.lianjia.com/zufang/shz3767441.html,121.549935,31.216424
低楼层，实地看房，高清照片，小户型,潍坊三村,1室1厅,40平,4500,112,2017.02.12上架,http://sh.lianjia.com/zufang/shz3765890.html,121.5258052,31.22892091
云台路86号，钥匙房，有爱有家，出行方便,云台路86号,2室1厅,66平,6800,103,2017.02.11上架,http://sh.lianjia.com/zufang/shz3762661.html,121.5066393,31.18802397
两室户，看房方便，地铁沿线，实地看房,市政大楼,2室1厅,72平,7200,100,2017.02.09上架,http://sh.lianjia.com/zufang/shz3759058.html,121.53201,31.236511
三新路5弄，南北通透，近地铁，有钥匙房源,三新路5弄,2室1厅,61平,4600,75,2017.02.09上架,http://sh.lianjia.com/zufang/shz3758137.html,121.5130901,31.14367676
南北通，实地看房，如您所见，有钥匙方便看,瑞苑公寓,2室2厅,157平,18000,114,2017.02.09上架,http://sh.lianjia.com/zufang/shz3757815.html,121.517648,31.245746
上海绿城，光线棒，南北直通，如您所见,上海绿城,3室2厅,126平,15500,123,2017.02.06上架,http://sh.lianjia.com/zufang/shz3748900.html,121.539738,31.211494
房型正气，钥匙在店，链家房源，采光棒,毕加索小镇（一期）（公寓）,2室2厅,93平,6500,69,2017.02.05上架,http://sh.lianjia.com/zufang/shz3748580.html,121.653788,31.221435
陆家嘴国际华城，钥匙在链家，实地看房，出行方便,陆家嘴国际华城,4室2厅,184平,20000,108,2017.02.04上架,http://sh.lianjia.com/zufang/shz3745210.html,121.541764,31.241526
光线非常好，链家有钥匙，实地看房，出行方便,新领地,1室1厅,48平,7000,145,2016.12.19上架,http://sh.lianjia.com/zufang/shz3671648.html,121.556841,31.209192
出行方便，上门实勘，好楼层，实地看房,绿城上海御园,4室2厅,183平,20000,109,2016.12.15上架,http://sh.lianjia.com/zufang/shz3661361.html,121.601032,31.298523
海苑大厦，链家房源，链家有钥匙，出行方便,海苑大厦,2室2厅,94平,9800,104,2016.12.02上架,http://sh.lianjia.com/zufang/shz3620890.html,121.551553,31.241955
人气房源，真实在租，看房有钥匙，高清照片,东盛公寓,2室2厅,69平,5000,72,2017.01.17上架,http://sh.lianjia.com/zufang/shz3606336.html,121.526556,31.188078
南北通，链家有钥匙，空气清新，生活很便利,港驳小区,2室1厅,56平,6000,107,2016.11.26上架,http://sh.lianjia.com/zufang/shz3604681.html,121.532746,31.220102
双桥小区，高清照片，交通方便，高区采光好,双桥小区,1室1厅,41平,3000,73,2016.11.17上架,http://sh.lianjia.com/zufang/shz3577351.html,121.601825,31.291724
碧云新天地，上下楼方便，钥匙在链家，高清大图,碧云新天地（二期）,4室2厅,162平,11000,67,2016.11.15上架,http://sh.lianjia.com/zufang/shz3573545.html,121.5948978,31.27038908
明珠苑，放心好房，高区景观好，出行方便,明珠苑（浦东）,2室2厅,89平,7000,78,2017.01.14上架,http://sh.lianjia.com/zufang/shz3558668.html,121.564327,31.246548
涵合园，空气清新，附近有地铁，有钥匙,涵合园（公寓）,3室2厅,129平,13000,100,2016.11.13上架,http://sh.lianjia.com/zufang/shz3531260.html,121.537297,31.205845
联洋新苑，近地铁，实地看房，一链倾城,联洋新苑,3室2厅,154平,12000,77,2016.11.05上架,http://sh.lianjia.com/zufang/shz3519898.html,121.559016,31.229522
高清大图，钥匙在店，人气房源，南北通,森兰名轩,3室2厅,98平,4800,48,2016.10.16上架,http://sh.lianjia.com/zufang/shz3495572.html,121.59734,31.294867
附近有地铁，一链倾城，人气房源，3室2厅,香梅花园,3室2厅,160平,15500,96,2016.09.20上架,http://sh.lianjia.com/zufang/shz3434180.html,121.544671,31.217388
在租四房，上门实勘，附近有地铁，实地看房,汤臣豪园（二期）,4室2厅,275平,22000,80,2017.03.02上架,http://sh.lianjia.com/zufang/shz3432359.html,121.589313,31.215008
巨杨小区，适合自住，一链倾城，交通方便,巨杨小区,2室1厅,54平,5500,101,2016.09.14上架,http://sh.lianjia.com/zufang/shz3420475.html,121.551869,31.24425
梅园六街坊，交通方便，上下楼方便，人气房源,梅园六街坊,2室1厅,49平,6800,138,2016.08.09上架,http://sh.lianjia.com/zufang/shz3339263.html,121.5337602,31.24132805
汇豪天下，高清照片，链家房源，2室2厅1卫,汇豪天下,2室2厅,88平,15000,170,2016.06.21上架,http://sh.lianjia.com/zufang/shz2749254.html,121.516454,31.232879
浦东世纪花园，4室2厅，低区出入方便，地铁沿线,浦东世纪花园（公寓）,4室2厅,189平,21000,111,2016.10.21上架,http://sh.lianjia.com/zufang/shz2239256.html,121.562603,31.216895
新上房源，钥匙在店，近地铁，采光好,潍坊五村,2室0厅,46平,5000,108,2017.08.14上架,http://sh.lianjia.com/zufang/shz4156693.html,121.530556,31.226228
2室1厅，人气房源，交通方便，链家有钥匙,临沂二村,2室1厅,49平,4400,89,2017.08.06上架,http://sh.lianjia.com/zufang/shz4142117.html,121.5166208,31.20049831
刚挂牌，两室户，视野很好，实地看房,光鸿苑,2室2厅,100平,8000,80,2017.08.05上架,http://sh.lianjia.com/zufang/shz4138695.html,121.521795,31.205495
3房出租，刚挂牌，南北户型，实地看房,中芯花园（公寓）,3室2厅,125平,10000,80,2017.08.04上架,http://sh.lianjia.com/zufang/shz4137498.html,121.625275,31.223134
链家房源，两室户，实地看房，有钥匙方便看,南杨花园,2室1厅,69平,5500,79,2017.07.26上架,http://sh.lianjia.com/zufang/shz4117886.html,121.560358,31.199081
浦东星河湾，钥匙在店，出行方便，新鲜上架,浦东星河湾,4室2厅,248平,42000,169,2017.08.13上架,http://sh.lianjia.com/zufang/shz4042623.html,121.542044,31.198949
绿缘公寓，好楼层，新出房源，实地看房,绿缘公寓,2室2厅,139平,10800,77,2017.08.16上架,http://sh.lianjia.com/zufang/shz3926433.html,121.554649,31.21617
张江汤臣豪园，高清照片，好房好心情，简约二室,张江汤臣豪园（二期）,2室2厅,74平,8400,113,2017.07.13上架,http://sh.lianjia.com/zufang/shz4093842.html,121.603671,31.208036
有钥匙，1室0厅，近地铁，新上房源,沪东新村,1室0厅,36平,2600,72,2017.08.18上架,http://sh.lianjia.com/zufang/shz4164709.html,121.590956,31.276013
东陆新村七街坊，如您所见，出行方便，钥匙在链家,东陆新村七街坊,1室1厅,42平,3200,76,2017.08.16上架,http://sh.lianjia.com/zufang/shz4161235.html,121.60687,31.28203
高区阳光房，附近有地铁，高清照片，小户型,东三里桥路160弄,1室1厅,36平,3600,100,2017.08.15上架,http://sh.lianjia.com/zufang/shz4159303.html,121.5174005,31.20527914
看房方便，3室2厅，光线非常好，新上房源,月亮湾园,3室2厅,132平,5000,37,2017.08.15上架,http://sh.lianjia.com/zufang/shz4159006.html,121.690876,31.19604528
高南新村，如您所见，空气清新，精致户型,高南新村,2室2厅,88平,4500,51,2017.08.15上架,http://sh.lianjia.com/zufang/shz4158942.html,121.5912018,31.34776718
香楠小区，交通便利，有钥匙，新出房源,香楠小区,2室1厅,51平,5200,101,2017.08.15上架,http://sh.lianjia.com/zufang/shz4158742.html,121.6193856,31.22197164
海尚乐苑，刚挂牌，放心好房，交通方便,海尚乐苑,1室1厅,59平,2800,47,2017.08.14上架,http://sh.lianjia.com/zufang/shz4157325.html,121.6094,31.121799
金杨新村十街坊，温馨一室，地铁沿线，真实在租,金杨新村十街坊,1室0厅,28平,3000,107,2017.08.14上架,http://sh.lianjia.com/zufang/shz4157245.html,121.5892,31.257172
宏莲馨苑，一链倾城，房型正气，附近有地铁,宏莲馨苑,2室2厅,93平,6200,66,2017.08.14上架,http://sh.lianjia.com/zufang/shz4157224.html,121.556768,31.191387
出行方便，新出好房，链家好房，适合自住,齐二小区,2室1厅,57平,4800,84,2017.08.14上架,http://sh.lianjia.com/zufang/shz4156877.html,121.518685,31.189068
三林世博家园，2室2厅1卫，钥匙房，高清照片,三林世博家园（大道站路94弄）,2室2厅,86平,5000,58,2017.08.13上架,http://sh.lianjia.com/zufang/shz4156031.html,121.544263,31.165126
金杨新村五街坊，新出房源，采光好，链家有钥匙,金杨新村五街坊,2室0厅,48平,3500,72,2017.08.13上架,http://sh.lianjia.com/zufang/shz4155836.html,121.583639,31.251299
海东公寓，新出好房，出行方便，1室1厅,海东公寓,1室1厅,55平,4300,78,2017.08.13上架,http://sh.lianjia.com/zufang/shz4155678.html,121.5540524,31.19106631
金旋小区，新鲜上架，适合自住，有爱有家,金旋小区,2室1厅,58平,6000,103,2017.08.13上架,http://sh.lianjia.com/zufang/shz4155676.html,121.5410884,31.18906442
视野开阔，新出房源，生活很便利，3室2厅1卫,金地湾流域（公寓）,3室2厅,86平,7500,87,2017.08.13上架,http://sh.lianjia.com/zufang/shz4155667.html,121.526828,31.155039
梅园六街坊，生活很便利，真实在租，空气清新,梅园六街坊,2室1厅,52平,7500,144,2017.08.13上架,http://sh.lianjia.com/zufang/shz4155578.html,121.5337602,31.24132805
广洋华景苑，钥匙房，附近有地铁，新出好房,广洋华景苑,2室2厅,102平,8500,83,2017.08.13上架,http://sh.lianjia.com/zufang/shz4155398.html,121.566263,31.248693
中房樱桃苑，交通便利，高清实拍，新鲜挂牌,中房樱桃苑,3室2厅,129平,10000,77,2017.08.13上架,http://sh.lianjia.com/zufang/shz4155289.html,121.5331007,31.15455356
恒大翰城瀚林苑，享受好房，附近有地铁，2室2厅,恒大翰城瀚林苑,2室2厅,91平,6500,71,2017.08.13上架,http://sh.lianjia.com/zufang/shz4155048.html,121.516748,31.15652418
画家村，1室1厅1卫，一链倾城，抢鲜笋盘,画家村,1室1厅,41平,3600,87,2017.08.13上架,http://sh.lianjia.com/zufang/shz4155027.html,121.5848135,31.28292662
一链倾城，交通便利，新鲜上架，链家有钥匙,大唐盛世花园,2室2厅,98平,12000,122,2017.08.13上架,http://sh.lianjia.com/zufang/shz4154790.html,121.566444,31.213217
交通方便，好房好心情，新鲜好房，光线充足,地杰国际城（E欧泊时光）,3室2厅,114平,7500,65,2017.08.13上架,http://sh.lianjia.com/zufang/shz4154537.html,121.579176,31.162636
链家房源，适合自住，出行方便，看房有钥匙,凌高小区,2室1厅,67平,5500,82,2017.08.13上架,http://sh.lianjia.com/zufang/shz4154160.html,121.556823,31.252936
东都小区，新上房源，适合自住，看房方便,东都小区,2室1厅,50平,3200,64,2017.08.12上架,http://sh.lianjia.com/zufang/shz4153686.html,121.710088,31.197933
金桂小区，简约二室，有钥匙方便看，生活很便利,金桂小区,2室1厅,65平,6800,104,2017.08.12上架,http://sh.lianjia.com/zufang/shz4153462.html,121.5564311,31.21352868
梅园五街坊，新上房源，钥匙在链家，上下楼方便,梅园五街坊,2室1厅,56平,6000,107,2017.08.12上架,http://sh.lianjia.com/zufang/shz4153439.html,121.5351162,31.23799506
梅园五街坊，看房有钥匙，刚挂牌，链家房源,梅园五街坊,2室1厅,52平,6800,130,2017.08.12上架,http://sh.lianjia.com/zufang/shz4153058.html,121.5351162,31.23799506
高区景观房，高清实拍，适合自住，看房方便,由由二村,2室1厅,58平,4500,77,2017.08.12上架,http://sh.lianjia.com/zufang/shz4153049.html,121.5345697,31.19810219
牡丹小区，1室1厅，新上房源，低楼层,牡丹小区（浦东）,1室1厅,49平,5500,112,2017.08.12上架,http://sh.lianjia.com/zufang/shz4152887.html,121.5520389,31.21342712
近地铁，2室1厅1卫，有钥匙方便看，新鲜上架,上南十村,2室1厅,59平,4500,76,2017.08.12上架,http://sh.lianjia.com/zufang/shz4152630.html,121.509682,31.176198
三林苑，2室1厅，好楼层，新上房源,三林苑,2室1厅,70平,4300,61,2017.08.12上架,http://sh.lianjia.com/zufang/shz4152577.html,121.5288861,31.15013281
金桥新家园，看房有钥匙，如您所见，交通便利,金桥新家园,3室2厅,107平,6500,60,2017.08.12上架,http://sh.lianjia.com/zufang/shz4151791.html,121.594246,31.261757
附近有地铁，新出房源，舒适三室，光线非常好,恒大华城东林苑,3室1厅,76平,7000,92,2017.08.11上架,http://sh.lianjia.com/zufang/shz4151662.html,121.494205,31.164632
如您所见，高清实拍，新鲜挂牌，南北直通,住友名人花园,4室2厅,156平,12000,76,2017.08.14上架,http://sh.lianjia.com/zufang/shz4150416.html,121.5730067,31.25491205
潍坊九村，南北直通，钥匙房，空气清新,潍坊九村,2室0厅,52平,6500,125,2017.08.11上架,http://sh.lianjia.com/zufang/shz4149720.html,121.5333359,31.2270147
芳华路411弄，抢鲜笋盘，房型正气，高区景观好,芳华路411弄,2室1厅,59平,5000,84,2017.08.11上架,http://sh.lianjia.com/zufang/shz4149639.html,121.5649697,31.20249444
牡丹路186弄，近地铁，有爱有家，适合自住,牡丹路186弄,2室1厅,68平,7500,110,2017.08.11上架,http://sh.lianjia.com/zufang/shz4149618.html,121.552323,31.212528
昌五小区，适合自住，新鲜上架，南北通透,昌五小区,2室1厅,55平,5500,100,2017.08.10上架,http://sh.lianjia.com/zufang/shz4149303.html,121.522948,31.184486
金桥路530弄，近地铁，1室1厅，抢鲜笋盘,金桥路530弄,1室1厅,44平,3800,86,2017.08.10上架,http://sh.lianjia.com/zufang/shz4148422.html,121.5807256,31.26782863
交通方便，上下楼方便，放心好房，上门实勘,艾山新村,2室1厅,65平,5400,83,2017.08.10上架,http://sh.lianjia.com/zufang/shz4148176.html,121.5717201,31.25053143
高区采光好，南北通，高清大图，4室2厅,盛世年华,4室2厅,174平,17000,97,2017.08.14上架,http://sh.lianjia.com/zufang/shz4144471.html,121.545231,31.234402
有钥匙房源，新出房源，光线充足，4室2厅,申金大厦,4室2厅,170平,13000,76,2017.08.07上架,http://sh.lianjia.com/zufang/shz4143396.html,121.516933,31.235048
放心好房，生活很便利，链家有钥匙，低楼层,世华锦城,1室1厅,58平,4500,77,2017.08.07上架,http://sh.lianjia.com/zufang/shz4142919.html,121.506876,31.166856
金杨新村十街坊，生活很便利，采光棒，好房待租,金杨新村十街坊,2室1厅,49平,5000,102,2017.08.06上架,http://sh.lianjia.com/zufang/shz4141953.html,121.5892,31.257172
真实在租，新鲜上架，好楼层，两室户,云台二小区,2室1厅,56平,5500,98,2017.08.06上架,http://sh.lianjia.com/zufang/shz4141763.html,121.514875,31.182086
飞旺家园，交通方便，链家房源，2室2厅1卫,飞旺家园,2室2厅,90平,5800,64,2017.08.05上架,http://sh.lianjia.com/zufang/shz4138825.html,121.5090858,31.16402156
舒适三室，出行方便，低区出入方便，高清照片,日月光水岸花园（公寓）,3室2厅,90平,7500,83,2017.08.16上架,http://sh.lianjia.com/zufang/shz4098512.html,121.630351,31.219919
梅园四街坊，3室0厅1卫，好房待租，空气清新,梅园四街坊,3室0厅,56平,9500,169,2017.08.08上架,http://sh.lianjia.com/zufang/shz4145312.html,121.532544,31.238222
光线非常好，精致户型，看房有钥匙，链家好房,巨野公寓,2室1厅,75平,6500,86,2017.07.23上架,http://sh.lianjia.com/zufang/shz4113315.html,121.5521089,31.24679965
三林苑，采光棒，精致户型，好房好心情,三林苑,2室2厅,56平,4600,82,2017.08.11上架,http://sh.lianjia.com/zufang/shz4150189.html,121.5288861,31.15013281
钥匙房，出行方便，低区出入方便，人气房源,东南新村（浦东）,1室0厅,28平,4600,164,2017.08.09上架,http://sh.lianjia.com/zufang/shz4145671.html,121.522882,31.231277
梅园三街坊，2室0厅1卫，低区出入方便，看房方便,梅园三街坊,2室0厅,70平,4800,68,2017.08.08上架,http://sh.lianjia.com/zufang/shz4144606.html,121.5305678,31.23972158
张江汤臣豪园，2室2厅，人气房源，有钥匙方便看,张江汤臣豪园（二期）,2室2厅,77平,8400,109,2017.08.07上架,http://sh.lianjia.com/zufang/shz4142762.html,121.603671,31.208036
三航小区，有钥匙，人气房源，近地铁,三航小区,1室1厅,33平,5000,151,2017.08.06上架,http://sh.lianjia.com/zufang/shz4142598.html,121.519434,31.241207
大华锦绣华城，好房待租，低楼层，2室2厅,大华锦绣华城（一街区）,2室2厅,71平,7000,98,2017.08.06上架,http://sh.lianjia.com/zufang/shz4142281.html,121.5328262,31.19034135
浦江东旭公寓，出行方便，人气房源，温馨之家,浦江东旭公寓,1室1厅,60平,3600,60,2017.08.06上架,http://sh.lianjia.com/zufang/shz4141811.html,121.591033,31.29739
生活很便利，实地看房，房型正气，低楼层,罗山六村,1室1厅,48平,4500,93,2017.08.06上架,http://sh.lianjia.com/zufang/shz4141462.html,121.569244,31.254613
钥匙在链家，链家好房，3室1厅1卫，交通便利,翠竹苑,3室1厅,86平,6200,72,2017.08.06上架,http://sh.lianjia.com/zufang/shz4140517.html,121.526015,31.1477445
实地看房，有钥匙，2室1厅1卫，交通方便,新世纪花苑（一期）（浦东）,2室1厅,64平,6100,95,2017.08.05上架,http://sh.lianjia.com/zufang/shz4139737.html,121.490177,31.180526
潍坊九村，低区出入方便，钥匙在店，实地看房,潍坊九村,1室1厅,34平,3900,114,2017.08.05上架,http://sh.lianjia.com/zufang/shz4139253.html,121.5333359,31.2270147
城南路362弄，有钥匙，一室小户型，人气房源,城南路362弄,1室1厅,46平,3100,67,2017.08.05上架,http://sh.lianjia.com/zufang/shz4139034.html,121.7093151,31.19831964
钥匙在店，有爱有家，生活很便利，2室1厅,海桐小区,2室1厅,71平,7500,105,2017.08.04上架,http://sh.lianjia.com/zufang/shz4137684.html,121.5593516,31.21122911
钥匙在链家，实地看房，3室1厅1卫，生活很便利,上泰雅苑,3室1厅,100平,7000,70,2017.08.04上架,http://sh.lianjia.com/zufang/shz4136649.html,121.589125,31.284892
人气房源，一室小户型，看房方便，低楼层,崂山三村,1室0厅,30平,3300,110,2017.08.03上架,http://sh.lianjia.com/zufang/shz4135793.html,121.5249362,31.24122816
2室2厅1卫，交通方便，实地看房，有钥匙,大唐盛世花园,2室2厅,102平,12000,117,2017.08.02上架,http://sh.lianjia.com/zufang/shz4133102.html,121.566444,31.213217
温馨一室，低楼层，看房方便，实地看房,金桥湾清水苑,1室1厅,50平,4200,84,2017.08.02上架,http://sh.lianjia.com/zufang/shz4132519.html,121.5998803,31.26590419
南北通，看房方便，交通方便，人气房源,大华锦绣华城（十二街区）,2室2厅,97平,7200,74,2017.08.02上架,http://sh.lianjia.com/zufang/shz4131679.html,121.545428,31.187881
南泉小区，两室户，实地看房，如您所见,南泉小区,2室0厅,50平,5000,100,2017.07.31上架,http://sh.lianjia.com/zufang/shz4128479.html,121.5292505,31.21939613
人气房源，真实在租，看房有钥匙，交通方便,东园三村,2室1厅,79平,8500,107,2017.07.31上架,http://sh.lianjia.com/zufang/shz4128273.html,121.520992,31.235704
上下楼方便，温馨之家，生活很便利，钥匙在店,青厦小区,1室1厅,62平,2500,40,2017.07.31上架,http://sh.lianjia.com/zufang/shz4128119.html,121.694382,31.203289
金杨新村九街坊，钥匙房，3房出租，附近有地铁,金杨新村九街坊,3室1厅,82平,6000,73,2017.07.30上架,http://sh.lianjia.com/zufang/shz4126256.html,121.587021,31.260023
2室1厅1卫，南北通，钥匙在链家，实地看房,博文园,2室1厅,91平,6800,74,2017.07.29上架,http://sh.lianjia.com/zufang/shz4124819.html,121.5083262,31.18894602
芳华路673弄，有爱有家，2室2厅1卫，地铁沿线,芳华路673弄,2室2厅,75平,4500,60,2017.07.29上架,http://sh.lianjia.com/zufang/shz4124682.html,121.5703,31.20304609
上钢七村，生活很便利，链家房源，一室小户型,上钢七村,1室1厅,36平,4500,125,2017.07.29上架,http://sh.lianjia.com/zufang/shz4124552.html,121.493468,31.178909
简约二室，钥匙在店，实地看房，附近有地铁,东陆新村二街坊,2室1厅,60平,4300,71,2017.07.29上架,http://sh.lianjia.com/zufang/shz4124372.html,121.6061953,31.27885008
光线充足，如您所见，有钥匙，生活很便利,名嘉新苑,3室2厅,123平,7800,63,2017.07.29上架,http://sh.lianjia.com/zufang/shz4124174.html,121.542475,31.15022
好房好心情，实地看房，空气清新，地铁沿线,思浦小区,1室0厅,37平,4200,113,2017.07.28上架,http://sh.lianjia.com/zufang/shz4121539.html,121.499803,31.165931
人气房源，高区采光好，有钥匙，链家房源,崮山小区三街坊,1室1厅,53平,4500,84,2017.07.27上架,http://sh.lianjia.com/zufang/shz4120945.html,121.568311,31.245956
浦建小区，有钥匙，南北通透，适合自住,浦建小区,2室1厅,63平,6600,104,2017.07.27上架,http://sh.lianjia.com/zufang/shz4119921.html,121.5276909,31.21620427
好房好心情，2室1厅1卫，生活很便利，光线棒,牡丹小区（浦东）,2室1厅,59平,6500,110,2017.07.27上架,http://sh.lianjia.com/zufang/shz4119359.html,121.5520389,31.21342712
万馨佳园，地铁沿线，有钥匙房源，链家房源,万馨佳园,2室2厅,77平,4200,54,2017.07.26上架,http://sh.lianjia.com/zufang/shz4118163.html,121.6796547,31.19868237
东方城市花园，空气清新，有爱有家，近地铁,东方城市花园（一期）,2室2厅,113平,11000,97,2017.07.26上架,http://sh.lianjia.com/zufang/shz4117639.html,121.529382,31.208812
出行方便，链家好房，低区出入方便，3房出租,顺馨佳园,3室2厅,121平,3800,31,2017.07.26上架,http://sh.lianjia.com/zufang/shz4117599.html,121.683402,31.198141
如您所见，舒适三室，实地看房，光线充足,陆家嘴新景园,3室2厅,112平,8800,78,2017.07.26上架,http://sh.lianjia.com/zufang/shz4117483.html,121.57989,31.256451
钥匙在店，高区阳光房，交通方便，适合自住,洋泾花园城,2室1厅,99平,8000,80,2017.07.25上架,http://sh.lianjia.com/zufang/shz4116815.html,121.552557,31.250716
南北通透，人气房源，两室户，闹中取静,中新公寓,2室2厅,102平,9000,88,2017.07.24上架,http://sh.lianjia.com/zufang/shz4115332.html,121.559307,31.245056
高南新村，视野开阔，有钥匙，实地看房,高南新村,1室1厅,48平,3000,62,2017.07.22上架,http://sh.lianjia.com/zufang/shz4111675.html,121.5912018,31.34776718
日月豪庭，有爱有家，地铁沿线，钥匙在店,日月豪庭（公寓）,3室2厅,97平,6000,61,2017.07.22上架,http://sh.lianjia.com/zufang/shz4111179.html,121.539201,31.154299
金地湾流域，好房好心情，钥匙在链家，生活很便利,金地湾流域（公寓）,2室1厅,90平,6500,72,2017.07.22上架,http://sh.lianjia.com/zufang/shz4110817.html,121.526828,31.155039
两室户，看房方便，交通方便，人气房源,新明大楼,2室1厅,72平,10000,138,2017.07.22上架,http://sh.lianjia.com/zufang/shz4110646.html,121.5250871,31.23234465
视野很好，1室1厅1卫，链家房源，实地看房,崂山三村,1室1厅,28平,4000,142,2017.07.21上架,http://sh.lianjia.com/zufang/shz4108692.html,121.5249362,31.24122816
吉利名苑，看房方便，出行方便，3室2厅1卫,吉利名苑,3室2厅,95平,7000,73,2017.07.21上架,http://sh.lianjia.com/zufang/shz4108650.html,121.514328,31.165318
乳山三村，光线非常好，人气房源，钥匙在链家,乳山三村,2室1厅,48平,5800,120,2017.07.21上架,http://sh.lianjia.com/zufang/shz4108327.html,121.526196,31.238968
房型正气，人气房源，近地铁，享受好房,绿洲康城亲水湾（东区）,2室2厅,100平,4800,48,2017.07.21上架,http://sh.lianjia.com/zufang/shz4107864.html,121.590715,31.158333
看房方便，3室2厅，光线棒，有爱有家,香梅花园,3室2厅,164平,13000,79,2017.07.21上架,http://sh.lianjia.com/zufang/shz4107783.html,121.544671,31.217388
天安花园，精致户型，光线充足，地铁沿线,天安花园,2室2厅,102平,13500,132,2017.07.20上架,http://sh.lianjia.com/zufang/shz4107601.html,121.561415,31.228874
合生时代锦苑，南北户型，链家有钥匙，精致户型,合生时代锦苑（公寓）,2室2厅,89平,12000,134,2017.07.19上架,http://sh.lianjia.com/zufang/shz4105570.html,121.495649,31.160261
世茂滨江花园，有爱有家，地铁沿线，实地看房,世茂滨江花园,4室2厅,329平,45000,136,2017.07.19上架,http://sh.lianjia.com/zufang/shz4104719.html,121.520399,31.227414
近地铁，2室1厅1卫，光线充足，人气房源,东方名筑,2室1厅,75平,7200,96,2017.07.19上架,http://sh.lianjia.com/zufang/shz4104588.html,121.5258563,31.20540028
